Facility Name,Facility ID,State Facility Type 1 Literal,County,State Facility Type 2 Literal,License Number,Address,City,State,Zip Code,Phone Number,Capacity,Licensee,Ownership Type,Email Address,Date Accessed,Latitude,Longitude
Brookdale Palestine,821,ASSISTED LIVING,Anderson,TYPE B,307194,101 TRINTY COURT,Palestine,TX,75801-6978,(903) 729-1900,50,"BKD STERLING HOUSE OF PALESTINE, LLC",LIMITED LIABILITY COMPANY (LLC),splunkettwuerger@brookdale.com,7/6/21,31.7358,-95.6262
Dogwood Trails Assisted Living Community,102438,ASSISTED LIVING,Anderson,TYPE B,308207,1625 SPRING ST,Palestine,TX,75803,903 7230040,60,"WELLTOWER, INC",FOR-PROFIT CORPORATION,administrator@dogwoodtrailsseniorliving.com,7/6/21,31.7695,-95.653
Windermere At Cartmell,106259,ASSISTED LIVING,Anderson,TYPE B,148140,30 VARIAH ST,Palestine,TX,75801,(903) 727-8500,56,CARTMELL COMMUNITIES INC,NONPROFIT ORGANIZATION,tkozik@cartmellhome.org,7/6/21,31.7438,-95.6478
Beehive Homes Of Andrews,110140,ASSISTED LIVING,Andrews,TYPE B,307301,2512 NW MUSTANG DRIVE,Andrews,TX,79714,,16,BHH OPERATIONS OF TEXAS 3,LIMITED LIABILITY COMPANY (LLC),nmanning@beehivehomes.com,7/6/21,32.334,-102.5563
Neches House,481,ASSISTED LIVING,Angelina,TYPE B,149652,406 GOBBLERS KNOB RD,Lufkin,TX,75904,(936) 639-9727,48,VERITAS SENIOR LIVING LLC,LIMITED LIABILITY COMPANY (LLC),clanders@veritashcg.com,7/6/21,31.3073,-94.7467
Pinecrest Retirement Community Assisted Living Unit,424,ASSISTED LIVING,Angelina,TYPE B,146764,1302 TOM TEMPLE DR,Lufkin,TX,75904,(936) 634-1054,78,MRC PINECREST,NON-PROFIT ORGANIZATION,hpierce@mrcaff.org,7/6/21,31.3148,-94.7315
Pinnacle Senior Living Of Lufkin,107217,ASSISTED LIVING,Angelina,TYPE B,307201,615 WEST WHITEHOUSE,Lufkin,TX,75904,(936) 219-1165,95,"PINNACLE SENIOR LIVING, LLC",LIMITED LIABILITY COMPANY (LLC),cheryl@pinnacleseniorliving.com,7/6/21,31.299,-94.7152
Gulf Pointe Village,715,ASSISTED LIVING,Aransas,TYPE A,143313,900 ENTERPRISE,Rockport,TX,78382,(361) 729-5254,40,MERIDIAN ROCKPORT ALF OE  LP,LIMITED LIABILITY COMPANY (LLC),yvonne.perez@healthmarkgroup.com,7/6/21,28.0406,-97.0523
Hudson House Claude Inc,30075,ASSISTED LIVING,Armstrong,TYPE B,149181,301 TRICE ST,Claude,TX,79019,(806) 226-4011,20,HUDSON HOUSE CLAUDE  INC,FOR-PROFIT CORPORATION,jillbenson3@yahoo.com,7/6/21,35.1076,-101.3602
Argent Court Atascosa County,102169,ASSISTED LIVING,Atascosa,TYPE B,150073,1951 HWY 97 E,Jourdanton,TX,78026,(830) 769-9797,57,ARGENT PLEASANTON OPERATIONS LLC,LIMITED LIABILITY COMPANY (LLC),shasta.adams@argentcourt.com,7/6/21,28.9342,-98.523
Michelle'S Care Home,100688,ASSISTED LIVING,Atascosa,TYPE B,148917,1310 POPLAR STREET,Jourdanton,TX,78026,(830) 767-3082,10,JM MCCLELLAN PROPERTIES  LLC,LIMITED LIABILITY COMPANY (LLC),jr@michellescarehome.com,7/6/21,28.9179,-98.5359
Pleasanton Assisted Living,50122,ASSISTED LIVING,Atascosa,TYPE A,148492,2920 2ND ST,Pleasanton,TX,78064,(830) 569-1851,12,HILL COUNTRY OUTREACH INC,FOR-PROFIT CORPORATION,vbulkley@yahoo.com,7/6/21,28.9953,-98.478
Oak Creek Estate Alf,519,ASSISTED LIVING,Atascosa,TYPE A,307105,309 OAK CREEK ESTATES ROAD,Poteet,TX,78065,(830) 276-4248,8,BENNY LOPEZ,OTHER,oakcreekestate@gmail.com,7/6/21,29.0836,-98.6005
Arbors Of Briarwood,102574,ASSISTED LIVING,Austin,TYPE A,148629,1517 W MAIN,Bellville,TX,77418,(979) 865-3969,16,"LTC OF AUSTIN COUNTY III, LLC",LIMITED LIABILITY COMPANY (LLC),celinashariff@gmail.com,7/6/21,29.9644,-96.2785
Rose Hill Retirement Home,30012,ASSISTED LIVING,Austin,TYPE A,148087,318 S MASONIC,Bellville,TX,77418,(979) 865-3883,16,RH RETIREMENT HOMES  LLC,LIMITED LIABILITY COMPANY (LLC),rosehillseniorliving@gmail.com,7/6/21,29.9473,-96.2612
Oak Haven Assisted Living,105127,ASSISTED LIVING,Austin,TYPE B,147081,16416 FORDTRAN BLVD,Industry,TX,78944,(979) 357-2535,10,OAK HAVEN ASSISTED LIVING LLC,LIMITED LIABILITY COMPANY (LLC),lbgalle@yahoo.com,7/6/21,29.9725,-96.4937
Brazos Crossing Assisted Living,110099,ASSISTED LIVING,Austin,TYPE B,307109,526 WARD ST,Sealy,TX,77474,(979) 627-9333,59,AARONS ASSISTED LIVING CENTERS LLC,LIMITED LIABILITY COMPANY (LLC),janet@vhkaty.com,7/6/21,29.7776,-96.16
Veranda House Assisted Living  Sealy,105925,ASSISTED LIVING,Austin,TYPE A,150169,526 FIFTH ST,Sealy,TX,77474,(979) 627-7225,14,SENIOR HOUSING CENTERS INC,FOR-PROFIT CORPORATION,donna@vhsealy.com,7/6/21,29.7781,-96.1601
Argent Court,100336,ASSISTED LIVING,Bastrop,TYPE B,146959,508 OLD AUSTIN HWY,Bastrop,TX,78602,(512) 321-9500,68,"ARGENT BASTROP OPERATIONS, LLC",LIMITED LIABILITY COMPANY (LLC),ashley.gunter@argentcourt.com,7/6/21,30.1104,-97.3361
New Haven Assisted Living Of Bastrop,107134,ASSISTED LIVING,Bastrop,TYPE B,149625,2604 STATE HIGHWAY 71 E. BUILDING B,Bastrop,TX,78602,(512) 428-8488,16,NEW HAVEN ASSISTED LIVING BASTROP  LLC,LIMITED LIABILITY COMPANY (LLC),justin@newhavenassistedliving.com,7/6/21,30.1054,-97.2958
New Haven Assisted Living Of Bastrop,107132,ASSISTED LIVING,Bastrop,TYPE B,149662,2604 STATE HIGHWAY 71 E. BUILDING A,Bastrop,TX,78602,(512) 428-8488,16,NEW HAVEN HOLDINGS OF BASTROP  LLC,LIMITED LIABILITY COMPANY (LLC),justin@newhavenassistedliving.com,7/6/21,30.1054,-97.2958
Just Like Home Seymour Llc,1266,ASSISTED LIVING,Baylor,TYPE B,146945,1137 W CALIFORNIA,Seymour,TX,76380,(940) 889-3551,7,JUST LIKE HOME SEYMOUR  LLC,SOLE PROPRIETOR,scarrington@seymourtexas.net,7/6/21,33.5954,-99.2838
801 Gramman Llc,101015,ASSISTED LIVING,Bee,TYPE A,150025,801 E GRAMMAN,Beeville,TX,78102,(361) 358-4900,16,801 GRAMMAN LLC,LIMITED LIABILITY COMPANY (LLC),gramman801@yahoo.com,7/6/21,28.4082,-97.7423
Luvida Memory Care,105668,ASSISTED LIVING,Bell,TYPE B,144602,2400 PIAZZA DRIVE,Belton,TX,76513,(254) 613-4119,48,"MEMORY CARE MANAGEMENT, LC",LIMITED LIABILITY COMPANY (LLC),janet@luvidacare.com,7/6/21,31.0431,-97.4617
Stoney Brook Of Belton,104460,ASSISTED LIVING,Bell,TYPE B,148155,500 RIVER FAIR BLVD,Belton,TX,76513,(254) 933-3800,57,4K HOUSING  INC,NONPROFIT ORGANIZATION,melissar@stoneybrookseniorliving.com,7/6/21,31.0889,-97.4644
Stoney Brook Of Belton,104420,ASSISTED LIVING,Bell,TYPE A,307712,500 RIVER FAIR BLVD,Belton,TX,76513,(254) 933-3800,56,4K HOUSING  INC,NONPROFIT ORGANIZATION,mrussell@rcmseniorliving.com,7/6/21,31.0889,-97.4644
The Rosewood Retirement Community,30300,ASSISTED LIVING,Bell,TYPE B,148643,5700 E CENTRAL TEXAS EXPY,Killeen,TX,76543,(254) 680-5020,85,PM MANAGEMENT  KILLEEN I NC LLC,LIMITED LIABILITY COMPANY (LLC),nhofmeister@seniorcarecentersltc.com,7/6/21,31.0731,-97.6868
Brookdale Western Hills,302,ASSISTED LIVING,Bell,TYPE B,146841,3902 W ADAMS AVE,Temple,TX,76504,(254) 791-8000,54,"BROOKDALE SENIOR LIVING COMMUNITIES, INC",FOR-PROFIT CORPORATION,splunkettwuerger@brookdale.com,7/6/21,31.1089,-97.3824
Canyon Creek Memory Care,103463,ASSISTED LIVING,Bell,TYPE B,307403,4257 LOWES DRIVE,Temple,TX,76502,(254) 773-3081,52,"LOWES SENIOR LIVING, INC",FOR-PROFIT CORPORATION,licensing@pennantservices.com,7/6/21,31.058,-97.3659
Elmcroft Of Cottonwood,365,ASSISTED LIVING,Bell,TYPE B,149041,3002 JACK RABBIT ROAD,Temple,TX,76502,(254) 778-2222,74,"EC OPCO COTTONWOOD, LLC",LIMITED LIABILITY COMPANY (LLC),darline.rodriguez@elmcroft.com,7/6/21,31.074,-97.3791
Garden Estates Of Temple Assisted Living Community,30135,ASSISTED LIVING,Bell,TYPE A,146606,5320 LOOP 205,Temple,TX,76502,(254) 770-1017,156,LSREF GOLDEN OPS 26 TX LLC,LIMITED LIABILITY COMPANY (LLC),ljacksonellis@seniorlifestyle.com,7/6/21,31.1156,-97.3975
The Mercy House A,103040,ASSISTED LIVING,Bell,TYPE B,148286,2728 COTTONWOOD LANE,Temple,TX,76502,(254) 771-9911,16,COTTONWOOD MERCY HOUSE LLC,FOR-PROFIT CORPORATION,tony@tonyjeter.com,7/6/21,31.0744,-97.3818
The Mercy House B,103473,ASSISTED LIVING,Bell,TYPE B,148288,2728 COTTONWOOD LN,Temple,TX,76502,(254) 771-9911,16,COTTONWOOD MERCY HOUSE LLC,FOR-PROFIT CORPORATION,tony@tonyjeter.com,7/6/21,31.0744,-97.3818
Wildflower Place,973,ASSISTED LIVING,Bell,TYPE B,148693,706 RED COAT DR,Temple,TX,76504,(254) 742-1581,47,WILDFLOWER AID OPCO LLC,LIMITED LIABILITY COMPANY (LLC),alclicense@enlivant.com,7/6/21,31.1123,-97.3708
Riojas Assisted Living Home,641,ASSISTED LIVING,Bexar,TYPE A,148354,14212 GREENWOOD RD,Atascosa,TX,78002,(830) 709-3541,16,EDDIE RIOJAS,SOLE PROPRIETOR,cjriojas02@yahoo.com,7/6/21,29.256,-98.7755
Happy Living Care Home,106533,ASSISTED LIVING,Bexar,TYPE B,150140,9143 AQUA DRIVE,Boerne,TX,78006,(830) 755-4372,11,HAPPY LIVING CARE HOME,SOLE PROPRIETOR,marco_cuba77@yahoo.com,7/6/21,29.7145,-98.6667
Neurorestorative San Antonio,105203,ASSISTED LIVING,Bexar,TYPE B,150176,124 SOUTH WINSTON LANE,Castle Hills,TX,78213,(210) 979-0830,6,"MENTOR ABI, LLC",LIMITED LIABILITY COMPANY (LLC),christin.moses@neurorestorative.com,7/6/21,29.534,-98.5268
Esplanade Gardens Senior Inc,30364,ASSISTED LIVING,Bexar,TYPE B,146735,10790 TOEPPERWEIN,Converse,TX,78109,(210) 566-7600,120,SILVERCREST PROPERTIES LLC,NONPROFIT ORGANIZATION,mvillarrea@esplandeseniorcampus.com,7/6/21,29.5376,-98.3319
Miramar Home Care,105159,ASSISTED LIVING,Bexar,TYPE B,145454,8662 GAVEL DRIVE,Converse,TX,78109,(210) 957-4769,6,LAURA DORCA,SOLE PROPRIETORSHIP,,7/6/21,29.5154,-98.2982
Honey'S House Of Helotes,105882,ASSISTED LIVING,Bexar,TYPE B,146180,10410 PARRIGIN RD,Helotes,TX,78023,(210) 540-8288,16,"RESIDENTIAL CARE HOMES OF AMERICA, LLC",LIMITED LIABILITY COMPANY (LLC),d.kitchen@live.com,7/6/21,29.5612,-98.6974
Honey'S House Of Helotes Ii,106841,ASSISTED LIVING,Bexar,TYPE B,147782,12445 FM 1560 N.,Helotes,TX,78023,(210) 540-8288,16,"RESIDENTIAL CARE HOMES OF AMERICA, LLC",LIMITED LIABILITY COMPANY (LLC),danny@changingseasonsliving.com,7/6/21,29.5607,-98.6977
Brookdale Hollywood Park,30200,ASSISTED LIVING,Bexar,TYPE B,145700,16911 SAN PEDRO,Hollywood Park,TX,78232,(210) 495-9340,101,"ESCNGH, LP",LIMITED PARTNERSHIP,cstrasburg@brookdale.com,7/6/21,29.5956,-98.4745
Country Life,103167,ASSISTED LIVING,Bexar,TYPE B,145811,16680 FM 2790 S,Lytle,TX,78052,(830) 709-0163,16,"CRS HEALTHCARE, LLC",LIMITED LIABILITY COMPANY (LLC),crs.healthcare@yahoo.com,7/6/21,29.2584,-98.8036
Golden Years Assisted Living,106299,ASSISTED LIVING,Bexar,TYPE B,149924,16860 W. FM 2790 S,Lytle,TX,78052,(830) 772-5888,9,EUGENE OLSON,SOLE PROPRIETOR,susiecurrie77@gmail.com,7/6/21,29.257,-98.8035
"A & R Golden Casa Assisted Living, Inc",10240,ASSISTED LIVING,Bexar,TYPE A,307143,7715 BARREN RIDGE,San Antonio,TX,78239,(210) 669-0967,11,"A & R GOLDEN CASA ASSISTED LIVING, INC",OTHER,argoldencasaalf@gmail.com,7/6/21,29.5196,-98.3401
A Golden Age Assisted Living Llc,106325,ASSISTED LIVING,Bexar,TYPE B,148224,1635 HILLCREST DR,San Antonio,TX,78228,(210) 430-6392,11,A GOLDEN AGE ASSISTED LIVING  LLC,LIMITED LIABILITY COMPANY (LLC),agoldenageassistedliving@gmail.com,7/6/21,29.4719,-98.5685
Adante Assisted Living,104864,ASSISTED LIVING,Bexar,TYPE B,307375,2739 CEMBALO BLVD.,San Antonio,TX,78230,(210) 493-0103,90,"WELLTOWER TCG RIDEA TENANT, LLC",LIMITED LIABILITY COMPANY (LLC),bmccaleb@sagora.com,7/6/21,29.5467,-98.5327
Agape House Ii,100902,ASSISTED LIVING,Bexar,TYPE A,150148,3443 WILLOWWOOD ST,San Antonio,TX,78219,(210) 253-9081,7,JUNE SORRELL,SOLE PROPRIETORSHIP,,7/6/21,29.4424,-98.4297
Amazing Peace Home Care Llc,881,ASSISTED LIVING,Bexar,TYPE A,148952,1202 DONALDSON AVE,San Antonio,TX,78228,(210) 736-2305,24,AMAZING PEACE HOME CARE LLC,LIMITED LIABILITY COMPANY (LLC),amazingpeacehomecare@gmail.com,7/6/21,29.4646,-98.5495
Angel Place Assisted Living Homes Inc #1,100310,ASSISTED LIVING,Bexar,TYPE A,147711,3907 SHERRIL BROOK DR,San Antonio,TX,78228,(210) 435-8234,15,ANGEL PLACE ASSISTED LIVING HOMES INC,FOR-PROFIT CORPORATION,lolama@aol.com,7/6/21,29.4722,-98.5813
Angel Place Assisted Living Homes Inc #2,660,ASSISTED LIVING,Bexar,TYPE A,147085,3911 SHERRIL BROOK DR,San Antonio,TX,78228,(210) 435-8234,13,ANGEL PLACE ASSISTED LIVING HOMES INC,FOR-PROFIT CORPORATION,lolama@aol.com,7/6/21,29.4723,-98.5812
Arden Courts Of San Antonio,100213,ASSISTED LIVING,Bexar,TYPE B,147072,15290 HUEBNER RD,San Antonio,TX,78231,(210) 408-9100,64,ARDEN COURTS OF SAN ANTONIO TX LLC,LIMITED LIABILITY COMPANY (LLC),664-admin@hcr-manorcare.com,7/6/21,29.5802,-98.5387
Arden Park Assisted Living Llc,105837,ASSISTED LIVING,Bexar,TYPE B,148712,7023 WEST HAUSMAN RD,San Antonio,TX,78249,(210) 723-6602,16,ARDEN PARK ASSISTED LIVING  LLC,LIMITED LIABILITY COMPANY (LLC),ardenparkassistedliving@gmail.com,7/6/21,29.5725,-98.6281
Arnold House At Blue Skies Of Texas East,104902,ASSISTED LIVING,Bexar,TYPE B,145570,4917 RAVENSWOOD DRIVE,San Antonio,TX,78227,(210) 568-5061,24,BST HEALTH SERVICES CORP,NONPROFIT ORGANIZATION,bjwilliamson@blueskiestx.org,7/6/21,29.3824,-98.6471
Assisted Living At Swans Landing,107285,ASSISTED LIVING,Bexar,TYPE B,307458,4154 SWANS LANDING,San Antonio,TX,78217,(210) 379-7340,16,CONCIERGE SENIOR SERVICES ENTERPRISES LLC,LIMITED LIABILITY COMPANY (LLC),ermed2004@yahoo.com,7/6/21,29.5241,-98.4118
Autism Treatment Center Inc,102947,ASSISTED LIVING,Bexar,TYPE A,145686,16511 HUNTING VALLEY,San Antonio,TX,78247,(210) 590-2107,7,AUTISTIC TREATMENT CENTER INC,NONPROFIT ORGANIZATION,mduncan@atcoftexas.org,7/6/21,29.5909,-98.3627
Autistic Treatment Center,106309,ASSISTED LIVING,Bexar,TYPE A,148658,16330 MARTINS FERRY,San Antonio,TX,78247,(210) 590-2107,5,AUTISTIC TREATMENT CENTER INC,NONPROFIT ORGANIZATION,mduncan@atcoftexas.org,7/6/21,29.5866,-98.363
Autumn Grove  Blanco,105328,ASSISTED LIVING,Bexar,TYPE B,147589,1418 WALKERS WAY,San Antonio,TX,78216,(210) 493-1181,16,GLEN HOPE HARBOR INC,NONPROFIT ORGANIZATION,sherifuller@autumngrouve.com,7/6/21,29.5727,-98.5147
Autumn Leaves Residential Home,30361,ASSISTED LIVING,Bexar,TYPE A,145486,6411 RIDGE PLACE,San Antonio,TX,78250,(210) 998-2208,9,WILMA J LA CROIX,SOLE PROPRIETOR,wilma.lacroix@outlook.com,7/6/21,29.4946,-98.6738
Autumngrove Cottage Stone Oak,105770,ASSISTED LIVING,Bexar,TYPE B,147158,20718 STONE OAK PKWY,San Antonio,TX,78258,(210) 497-8645,16,GLEN HOPE HARBOR INC,NONPROFIT ORGANIZATION,julieclements@autumngrove.com,7/6/21,29.6497,-98.4596
Avalon Memory Care Mystic Park,106556,ASSISTED LIVING,Bexar,TYPE B,145998,8615 MYSTIC PARK,San Antonio,TX,78254,(214) 752-7050,25,O'HARE MANAGEMENT LLC,LIMITED LIABILITY COMPANY (LLC),licensure@avalonmemorycare.com,7/6/21,29.523,-98.6442
Bader House,106230,ASSISTED LIVING,Bexar,TYPE B,148393,3411 PAESANO'S PARKWAY,San Antonio,TX,78231,(210) 408-1002,24,BADER HOUSE OF SHAVANO PARK I  LTD,LIMITED PARTNERSHIP,kgreenwood@baderhouse.com,7/6/21,29.6,-98.5457
Beehive Homes Of Babcock Ridge,110319,ASSISTED LIVING,Bexar,TYPE B,307784,6403 MELISSA ANN ST,San Antonio,TX,78249,(210) 740-1050,16,TD ASSISTED LIVING LLC,LIMITED LIABILITY COMPANY (LLC),beehivehomestx@gmail.com,7/6/21,29.5484,-98.6134
Beehive Homes Of Crownridge,110322,ASSISTED LIVING,Bexar,TYPE B,307787,6919 CAMP BULLIS RD,San Antonio,TX,78256,(210) 874-5996,16,"SIKORA CARE, LLC",LIMITED LIABILITY COMPANY (LLC),jennifer@beehivehomes.com,7/6/21,29.6144,-98.6214
"Blossom Care Assisted Living, Llc",104432,ASSISTED LIVING,Bexar,TYPE B,145594,24803 BROAD OAK TRAIL,San Antonio,TX,78255,(210) 267-9106,16,"BLOSSOM CARE ASSISTED LIVING, LLC",LIMITED LIABILITY COMPANY (LLC),blossomcareassistedliving@yahoo.com,7/6/21,29.6673,-98.6605
Boarding With Tender Care Inc,100822,ASSISTED LIVING,Bexar,TYPE A,146044,1002 GALLATIN DR,San Antonio,TX,78245,(210) 573-3680,9,BOARDING WITH TENDER CARE INC,FOR-PROFIT CORPORATION,tendercare77@gmail.com,7/6/21,29.4268,-98.6871
Brookdale Alamo Heights,945,ASSISTED LIVING,Bexar,TYPE B,146619,855 E BASSE RD,San Antonio,TX,78209,(210) 930-1040,97,"SH OPCO LINCOLN HEIGHTS, LLC",LIMITED LIABILITY COMPANY (LLC),jroth@brookdale.com,7/6/21,29.4981,-98.4718
Brookdale Hamilton Wolfe,30050,ASSISTED LIVING,Bexar,TYPE A,145406,5331 HAMILTON WOLFE RD,San Antonio,TX,78229,(210) 641-7200,96,ESC III LP,LIMITED PARTNERSHIP,vincent.falcon@brookdale.com,7/6/21,29.5177,-98.5925
Brookdale Hamilton Wolfe,30049,ASSISTED LIVING,Bexar,TYPE B,148959,5331 HAMILTON WOLFE RD,San Antonio,TX,78229,(210) 641-7200,32,ESC III LP,LIMITED PARTNERSHIP,vincent.falcon@brookdale.com,7/6/21,29.5177,-98.5925
Brookdale Maltsberger,350,ASSISTED LIVING,Bexar,TYPE B,146116,13303 JONES MALTSBERGER RD,San Antonio,TX,78247,(210) 402-3800,60,"BROOKDALE SENIOR LIVING COMMUNITIES, INC",FOR-PROFIT CORPORATION,splunkettwuerger@brookdale.com,7/6/21,29.5629,-98.4583
Brookdale Medical Center Kingsley,30044,ASSISTED LIVING,Bexar,TYPE B,146538,9000 FLOYD CURL DR,San Antonio,TX,78240,(210) 697-0772,136,ESC IV LP,LIMITED PARTNERSHIP,lori.hall@brookdale.com,7/6/21,29.528,-98.5908
Brookdale Medical Center Whitby,360,ASSISTED LIVING,Bexar,TYPE B,146278,5996 WHITBY RD,San Antonio,TX,78240,(210) 561-9500,60,"BROOKDALE SENIOR LIVING COMMUNITIES, INC",FOR-PROFIT CORPORATION,splunkettwuerger@brookdale.com,7/6/21,29.5219,-98.6053
Brookdale N Fredericksburg Road,731,ASSISTED LIVING,Bexar,TYPE B,148230,9505 FREDERICKSBURG RD,San Antonio,TX,78240,(210) 641-6257,120,"ESCNGH, LP",LIMITED PARTNERSHIP,tariequa.powell@brookdale.com,7/6/21,29.5266,-98.5764
Brookdale Nacogdoches,313,ASSISTED LIVING,Bexar,TYPE B,149904,14595 NACOGDOCHES RD,San Antonio,TX,78247,(210) 653-6100,60,"BROOKDALE SENIOR LIVING COMMUNITIES, INC",FOR-PROFIT CORPORATION,ldzierzanski@brookdale.com,7/6/21,29.5737,-98.3791
Brookdale Oakwell,30087,ASSISTED LIVING,Bexar,TYPE B,148634,3360 OAKWELL COURT,San Antonio,TX,78218,(210) 820-8744,136,ESC IV LP,LIMITED PARTNERSHIP,dean.fischbeck@brookdale.com,7/6/21,29.5082,-98.4306
Brooks Home For Seniors,105931,ASSISTED LIVING,Bexar,TYPE B,146849,4139 BRIAR GLEN DR.,San Antonio,TX,78218,(210) 590-8927,6,BROOKS HOME FOR SENIORS LLC,LIMITED LIABILITY COMPANY (LLC),brookshomeforseniors@gmail.com,7/6/21,29.5117,-98.4121
Camino Real Senior Living,652,ASSISTED LIVING,Bexar,TYPE A,307666,4415 RIO DORO,San Antonio,TX,78233,(210) 653-3132,205,"MFF AMBER OAKS, LLC",LIMITED LIABILITY COMPANY (LLC),jennifer.anderson@brookdale.com,7/6/21,29.5524,-98.4036
Carol Ann'S Home,106890,ASSISTED LIVING,Bexar,TYPE B,148719,10506 WAYWARD,San Antonio,TX,78217,(210) 621-3685,16,CAROL ANN'S HOME INC,FOR-PROFIT CORPORATION,ghanbar2007@yahoo.com,7/6/21,29.5366,-98.4308
Carol Ann'S Home Inc,103570,ASSISTED LIVING,Bexar,TYPE A,145957,4215 HILTON HEAD,San Antonio,TX,78217,(210) 966-0656,8,CAROL ANN'S HOME INC,FOR-PROFIT CORPORATION,ghanbar2007@yahoo.com,7/6/21,29.5555,-98.4108
Carol Ann'S Home Inc,30254,ASSISTED LIVING,Bexar,TYPE B,144136,8005 CHAMBERS RD,San Antonio,TX,78229,(210) 621-3685,15,CAROL ANN'S HOME INC,FOR-PROFIT CORPORATION,ghanbar2007@yahoo.com,7/6/21,29.5114,-98.5611
Casa Felicitas,432,ASSISTED LIVING,Bexar,TYPE B,150137,107 BARBARA DR,San Antonio,TX,78216,(210) 349-4452,14,KINCARE INCORPORATED,FOR-PROFIT CORPORATION,kincareal@aol.com,7/6/21,29.5035,-98.4931
Cedar Ranch At Military Drive,106414,ASSISTED LIVING,Bexar,TYPE B,307685,10107 MILITARY DRIVE WEST,San Antonio,TX,78251,(210) 608-9302,56,LBC WESTOVER HILLS LLC,LIMITED LIABILITY COMPANY (LLC),rtownsend@solutionsadvisorsgroup.com,7/6/21,29.452,-98.6832
Changing Seasons On Blanco,110323,ASSISTED LIVING,Bexar,TYPE B,307788,16400 BLANCO RD,San Antonio,TX,78232,(210) 540-8288,119,"RESIDENTIAL CARE HOMES OF AMERICA, LLC",LIMITED LIABILITY COMPANY (LLC),danny@changingseasonsliving.com,7/6/21,29.5896,-98.5123
Colonial Gardens Of San Antonio Sa1,30045,ASSISTED LIVING,Bexar,TYPE B,149631,20 LYNN BATTS LANE,San Antonio,TX,78218,(210) 826-6594,16,SOUTHWEST LTC  SAN ANTONIO ALF  LLC,LIMITED LIABILITY COMPANY (LLC),license@swltc.com,7/6/21,29.5072,-98.433
Colonial Gardens Of San Antonio Sa2,30288,ASSISTED LIVING,Bexar,TYPE B,147994,10 LYNN BATTS LANE,San Antonio,TX,78218,(210) 826-6594,20,SOUTHWEST LTC  SAN ANTONIO ALF  LLC,LIMITED LIABILITY COMPANY (LLC),license@swltc.com,7/6/21,29.5066,-98.4328
Cornerstone Assisted Living,106553,ASSISTED LIVING,Bexar,TYPE B,146050,103 FAIRWAY CIRCLE,San Antonio,TX,78232,(206) 349-1816,6,CORNERSTONE ALF LLC,LIMITED LIABILITY COMPANY (LLC),cornerstoneassistedliving@yahoo.com,7/6/21,29.6026,-98.5057
Cottages On Danny Kaye Iii,110467,ASSISTED LIVING,Bexar,TYPE B,308111,5962 DANNY KAYE BUILDING 3,San Antonio,TX,78240,(210) 556-5553,16,"RESIDENTIAL CARE HOMES OF AMERICA, LLC",LIMITED LIABILITY COMPANY (LLC),danny@changingseasonsliving.com,7/6/21,29.511,-98.5968
Desert Sands Assisted Living Llc,740,ASSISTED LIVING,Bexar,TYPE A,307898,10218 DESERT SANDS,San Antonio,TX,78216,(210) 341-1012,42,DESERT SANDS ASSISTED LIVING LLC,LIMITED LIABILITY COMPANY (LLC),tozgo@sunrisegardenvillas.com,7/6/21,29.5333,-98.4926
Discovery Village At Dominion,106675,ASSISTED LIVING,Bexar,TYPE B,307480,6906 HEUERMAN ROAD,San Antonio,TX,78257,(210) 947-7000,148,"DSL TENANT II, LLC",LIMITED LIABILITY COMPANY (LLC),rsmith@discoverymgt.com,7/6/21,29.6359,-98.6182
"Doves Nest Assisted Living, Llc",101047,ASSISTED LIVING,Bexar,TYPE A,149735,14311 PARKHURST DR,San Antonio,TX,78232,(210) 865-3026,10,ANA KHAN,SOLE PROPRIETOR,ana@mydovesnest.org,7/6/21,29.5725,-98.4687
Elisas Fostercare,1075,ASSISTED LIVING,Bexar,TYPE C,148010,147 CROESUS,San Antonio,TX,78213,(210) 979-9251,4,ELISA M DURDA,SOLE PROPRIETOR,emdsrd@hotmail.com,7/6/21,29.4893,-98.5329
Elmcroft Of Windcrest,30383,ASSISTED LIVING,Bexar,TYPE B,307018,6849 CRESTWAY,San Antonio,TX,78239,(210) 946-4994,113,"EC OPCO WINDCREST, LLC",LIMITED LIABILITY COMPANY (LLC),cgutmann@elmcroft.com,7/6/21,29.5224,-98.3536
Esdras Mendoza,101083,ASSISTED LIVING,Bexar,TYPE A,149861,4618 MANITOU DR,San Antonio,TX,78228,(210) 436-6885,12,MARIA G LOPEZ,SOLE PROPRIETOR,mendozaassistedliving@gmail.com,7/6/21,29.4864,-98.5768
Faith Home,101026,ASSISTED LIVING,Bexar,TYPE B,147293,4218 CLEAR LAKE,San Antonio,TX,78217,(210) 637-7848,7,ROSA CORTES,SOLE PROPRIETOR,cdiana22@aol.com,7/6/21,29.5542,-98.4102
Fenwood Residential Home Care,102535,ASSISTED LIVING,Bexar,TYPE A,149661,8862 FENWOOD,San Antonio,TX,78250,(210) 296-7260,7,FENWOOD HOME CARE ALF LLC,LIMITED LIABILITY COMPANY,fenwoodhome1@aol.com,7/6/21,29.4847,-98.6618
Franklin Park Alamo Heights Assisted Living,106581,ASSISTED LIVING,Bexar,TYPE B,148688,230 W. SUNSET ROAD,San Antonio,TX,78209,(210) 829-5955,121,FAM ALAMO HEIGHTS  LTD,FOR-PROFIT CORPORATION,david@fpliving.com,7/6/21,29.5061,-98.469
Franklin Park Sonterra Assisted Living,104458,ASSISTED LIVING,Bexar,TYPE B,147405,18323 SONTERRA PLACE,San Antonio,TX,78258,(210) 404-1444,70,FAM SONTERRA  LTD,LIMITED PARTNERSHIP,tammie@fpliving.com,7/6/21,29.6111,-98.4993
Franklin Park Tpc Parkway,104834,ASSISTED LIVING,Bexar,TYPE B,307495,21802 ENCINO COMMONS,San Antonio,TX,78258,(210) 483-9999,125,"FRANKLIN PARK STONE OAK, LTD",LIMITED PARTNERSHIP,fptpced@fpliving.com,7/6/21,29.6438,-98.4494
Freedom House Alzheimer'S Care And Research Center,30259,ASSISTED LIVING,Bexar,TYPE B,148715,12455 FREEDOM WAY,San Antonio,TX,78245,(210) 838-6300,72,ALZHEIMERS CARE AND RESEARCH CENTER FOUNDATION,NONPROFIT ORGANIZATION,kurtriedel@blueskiestx.org,7/6/21,29.3828,-98.7394
Garcia Foster Home,101298,ASSISTED LIVING,Bexar,TYPE C,148153,558 FERRIS ST,San Antonio,TX,78220,(210) 271-9433,4,LALITA GARCIA,SOLE PROPRIETOR,garciafosterhome@gmail.com,7/6/21,29.4141,-98.4246
Golden Age Home Care Llc,110295,ASSISTED LIVING,Bexar,TYPE B,307714,5506 KING RICHARD ST,San Antonio,TX,78229,(714) 471-4981,6,GOLDEN AGE HOME CARE LLC,LIMITED LIABILITY COMPANY (LLC),goldenagehomecare@yahoo.com,7/6/21,29.4918,-98.5933
Golden Oaks Assisted Living,106932,ASSISTED LIVING,Bexar,TYPE B,308228,242 EARLY TRAIL,San Antonio,TX,78228,(210) 931-7554,6,MOSI LLC,LIMITED LIABILITY COMPANY (LLC),info@goldenoakstx.com,7/6/21,29.4653,-98.5755
Golden Stage Assisted Living,104091,ASSISTED LIVING,Bexar,TYPE B,149906,24911 N SADDLE TRL,San Antonio,TX,78255,(210) 589-3099,14,LENUTA PUMNUT,OTHER,lenipumnut@yahoo.com,7/6/21,29.668,-98.6586
Greenwood Home Care,106543,ASSISTED LIVING,Bexar,TYPE B,150089,6035 SPRING TIME DRIVE,San Antonio,TX,78249,(210) 860-4307,6,GREENWOOD HOME CARE,SOLE PROPRIETOR,benvesa@yahoo.com,7/6/21,29.5546,-98.604
Happy Home Adult Personal Care Home,926,ASSISTED LIVING,Bexar,TYPE A,146569,4635 LORD RD,San Antonio,TX,78220,(210) 267-8142,12,GERALDINE DOLORES WALKER,,,7/6/21,29.4139,-98.4016
Heart To Heart Residential Care Home Llc,103524,ASSISTED LIVING,Bexar,TYPE B,147904,12119 SAN MIGUEL,San Antonio,TX,78233,(210) 777-1039,12,HEART TO HEART RESIDENTIAL CARE HOME LLC,LIMITED LIABILITY COMPANY (LLC),heart2heartcarehome@yahoo.com,7/6/21,29.5513,-98.4014
Heartis San Antonio,106612,ASSISTED LIVING,Bexar,TYPE B,148973,15430 HUEBNER ROAD,San Antonio,TX,78248,(210) 492-1928,186,HEARTIS SAN ANTONIO PARTNERS LP,LIMITED PARTNERSHIP,administrator@heartissanantonio.com,7/6/21,29.5838,-98.5348
Heritage Creek,105674,ASSISTED LIVING,Bexar,TYPE B,148410,6538 ECKHERT RD.,San Antonio,TX,78240,(210) 446-2120,52,HERITAGE CREEK ASSISTED LIVING INC,FOR-PROFIT CORPORATION,christina@heritagecreeksa.com,7/6/21,29.5184,-98.6162
Highland Gardens Personal Care,843,ASSISTED LIVING,Bexar,TYPE A,148849,802 MONTICELLO,San Antonio,TX,78223,(210) 534-9451,8,GLADYS M KOVAL & GEORGE J KOVAL,GENERAL PARTNERSHIP,gladysandgeorgekoval@gmail.com,7/6/21,29.3738,-98.4564
Hopes Residence,30354,ASSISTED LIVING,Bexar,TYPE A,149414,5046 GALAHAD DR,San Antonio,TX,78218,(210) 564-0870,11,HEALTH OPERATION PROVIDING ECONOMICAL SOLUTIONS HOPES,NONPROFIT ORGANIZATION,jmarychosen@aol.com,7/6/21,29.5032,-98.3921
Hopes Residence,101528,ASSISTED LIVING,Bexar,TYPE A,149002,5102 GAWAIN DR,San Antonio,TX,78218,(210) 559-2551,12,HEALTH OPERATION PROVIDING ECONOMICAL SOLUTIONS HOPES,NONPROFIT ORGANIZATION,jmarychosen@aol.com,7/6/21,29.5057,-98.3909
Humble 4 Life Assisted Living,106920,ASSISTED LIVING,Bexar,TYPE A,307425,8915 NEW WORLD,San Antonio,TX,78239,(360) 434-6642,28,HUMBLE 4 LIFE ASSISTED LIVING LLC,LIMITED LIABILITY COMPANY (LLC),temikab@humble4lifelal.com,7/6/21,29.5209,-98.3554
Ihcs Residential,50192,ASSISTED LIVING,Bexar,TYPE A,147993,15218 PEBBLE FOREST DR,San Antonio,TX,78232,(210) 559-9500,9,IHCS RESIDENTIAL,FOR-PROFIT CORPORATION,publicrelations225@gmail.com,7/6/21,29.5821,-98.4457
"Imagine Wellness Assisted Living, Llc",110189,ASSISTED LIVING,Bexar,TYPE B,307412,13919 RIDGE OAK PARKWAY,San Antonio,TX,78249,(210) 908-8300,16,"RIDGE OAK ASSISTED LIVING, LLC",LIMITED LIABILITY COMPANY (LLC),imaginewellnessliving@gmail.com,7/6/21,29.5748,-98.6247
Incarnate Word Retirement Community Inc,100473,ASSISTED LIVING,Bexar,TYPE B,149279,4707 BROADWAY,San Antonio,TX,78209-6200,2108297561 ext 140,45,INCARNATE WORD RETIREMENT COMMUNITY INC,NONPROFIT ORGANIZATION,paul.harrison@thevillageiw.org,7/6/21,29.4693,-98.4638
Independence Hill Assisted Living,100102,ASSISTED LIVING,Bexar,TYPE A,149496,20500 HUEBNER RD,San Antonio,TX,78258,(210) 482-2000,115,STONE OAK VILLAS II LTD,LIMITED PARTNERSHIP,elizabethb@dialcommunities.com,7/6/21,29.6251,-98.4905
Just Like Home Care,106149,ASSISTED LIVING,Bexar,TYPE B,147042,4126 SHADY OAK ST,San Antonio,TX,78229,(210) 274-8280,11,JUST LIKE HOME CARE,GENERAL PARTNERSHIP,justlikehomecare4126@yahoo.com,7/6/21,29.4955,-98.5677
Just Like Home Care For Seniors Inc,110338,ASSISTED LIVING,Bexar,TYPE B,307837,6625 ADAIR DR,San Antonio,TX,78238,(210) 274-8280,6,JUST LIKE HOME CARE FOR SENIORS INC,FOR-PROFIT CORPORATION,justlikehomecare4126@yahoo.com,7/6/21,29.4946,-98.6058
Kovals Adult Foster Home,514,ASSISTED LIVING,Bexar,TYPE A,146005,804 MONTICELLO,San Antonio,TX,78223,(210) 534-9451,4,GLADYS M KOVAL & GEORGE J KOVAL,GENERAL PARTNERSHIP,gladysandgeorgekoval@gmail.com,7/6/21,29.374,-98.4565
Ksl Texas Communities Sa Llc,102599,ASSISTED LIVING,Bexar,TYPE A,149859,8103 N HOLLOW,San Antonio,TX,78240,(210) 558-7600,61,KSL TEXAS COMMUNITIES SA  LLC,LIMITED LIABILITY COMPANY (LLC),twuestney@northstarsl.com,7/6/21,29.5155,-98.6025
La Cantera Assisted Living And Memory Care Llc,107133,ASSISTED LIVING,Bexar,TYPE B,307115,7524 WILD EAGLE STREET,San Antonio,TX,78255,(206) 356-3468,10,LA CANTERA ASSISTED LIVING AND MEMORY CARE LLC,LIMITED LIABILITY COMPANY (LLC),flavius5@msn.com,7/6/21,29.5914,-98.6347
Lakeside Villas At The Arc,105022,ASSISTED LIVING,Bexar,TYPE B,148813,10000 RHINELAND,San Antonio,TX,78239,(210) 646-5200,68,THE ARMY RETIREMENT RESIDENCE FOUNDATION SAN ANTONIO INC,NONPROFIT ORGANIZATION,shuber@armyresidence.com,7/6/21,29.5148,-98.3425
Landon Ridge  Alamo Ranch,106118,ASSISTED LIVING,Bexar,TYPE B,307560,11349 ALAMO RANCH PARKWAY,San Antonio,TX,78253,(888) 212-1657,152,"WELLTOWER TCG RIDEA TENANT, LLC",LIMITED LIABILITY COMPANY (LLC),bmccaleb@sagora.com,7/6/21,29.4878,-98.7174
Leon Springs Lodge Llc,103438,ASSISTED LIVING,Bexar,TYPE B,147442,24137 BOERNE STAGE RD,San Antonio,TX,78255,(210) 698-9365,12,LEON SPRINGS LODGE LLC,LIMITED LIABILITY COMPANY (LLC),rschroeder24137@gmail.com,7/6/21,29.6631,-98.6366
Liberty House At Blue Skies Of Texas West,101035,ASSISTED LIVING,Bexar,TYPE B,145683,5200 JOHN D RYAN BLVD,San Antonio,TX,78245,(210) 568-3420,51,BST HEALTH SERVICES CORP,NONPROFIT ORGANIZATION,marshalloyd@blueskiestx.org,7/6/21,29.3832,-98.7342
Living With Choices,110359,ASSISTED LIVING,Bexar,TYPE B,307906,10327 LUZON DR.,San Antonio,TX,78217,(210) 748-2959,6,LIVING WITH CHOICES LLC,LIMITED LIABILITY COMPANY (LLC),pgallegoscns@yahoo.com,7/6/21,29.534,-98.4429
Lopez Assisted Living Home,100358,ASSISTED LIVING,Bexar,TYPE A,149678,1611 W COMMERCE ST,San Antonio,TX,78207,(210) 251-3896,10,LOPEZ ASSISTED LIVING HOMES  INC,SOLE PROPRIETOR,tomlopez@yahoo.com,7/6/21,29.4271,-98.5126
Lopez Assisted Living Homes,30366,ASSISTED LIVING,Bexar,TYPE A,147892,3706 SHERRIL BROOK,San Antonio,TX,78228,(210) 434-7216,11,LOPEZ ASSISTED LIVING HOMES  INC,SOLE PROPRIETOR,maryelopez1@yahoo.com,7/6/21,29.4699,-98.5821
Lopez Homes,103075,ASSISTED LIVING,Bexar,TYPE A,145646,118 WALLACE RD,San Antonio,TX,78237,(210) 438-8750,6,LOPEZ HOME MCG LLC,LIMITED LIABILITY COMPANY (LLC),lopezhomesmcg@gmail.com,7/6/21,29.4193,-98.5472
Lopez Homes Mcg Llc,101847,ASSISTED LIVING,Bexar,TYPE A,150224,511 W. QUILL,San Antonio,TX,78228,(210) 432-0552,8,LOPEZ HOME MCG LLC,LIMITED LIABILITY COMPANY (LLC),lopezhomesmcg@gmail.com,7/6/21,29.4663,-98.5821
Lopez Homes Mcg Llc,107213,ASSISTED LIVING,Bexar,TYPE A,307189,3707 CROSSETTE DRIVE,San Antonio,TX,78228,(210) 352-5609,6,LOPEZ HOME MCG LLC,LIMITED LIABILITY COMPANY (LLC),lopezhomesmcg@gmail.com,7/6/21,29.4819,-98.5554
Lopez Homes Mcg Llc,106483,ASSISTED LIVING,Bexar,TYPE A,147632,4818 OAKWAY DR.,San Antonio,TX,78228,(210) 277-0494,6,LOPEZ HOME MCG LLC,LIMITED LIABILITY COMPANY (LLC),lopezhomesmcg@gmail.com,7/6/21,29.4768,-98.5807
Marina'S Assisted Living Llc,105241,ASSISTED LIVING,Bexar,TYPE B,145498,3515 BACKBAY DRIVE,San Antonio,TX,78230,(210) 257-9596,10,MARINA'S ASSISTED LIVING LLC,LIMITED LIABILITY COMPANY (LLC),mcarehome@yahoo.com,7/6/21,29.5378,-98.555
Meadows,101631,ASSISTED LIVING,Bexar,TYPE B,149587,8706 MISSION ROAD,San Antonio,TX,78214,(210) 924-9265,8,MISSION ROAD DEVELOPMENTAL CENTER,NONPROFIT ORGANIZATION,lbutler@mrmsat.org,7/6/21,29.3366,-98.4625
Memory Care Of Westover Hills,106423,ASSISTED LIVING,Bexar,TYPE B,149427,10910 TOWN CENTER DRIVE,San Antonio,TX,78251,(210) 802-6653,64,TRIDENT HEALTHCARE PROPERTIES I LP,LIMITED PARTNERSHIP,lcarrasco@memorycarewestoverhills.c,7/6/21,29.4618,-98.6881
Mendoza Assisted Living,105454,ASSISTED LIVING,Bexar,TYPE A,146547,208 HOPE DR.,San Antonio,TX,78228,(210) 639-2560,10,MARIA G LOPEZ,SOLE PROPRIETOR,edie.m@hotmail.com,7/6/21,29.4696,-98.5831
Mentis Neuro Health,110289,ASSISTED LIVING,Bexar,TYPE B,146732,18931 HARDY OAK BLVD,San Antonio,TX,78258,(210) 599-4400,24,MENTIS NEURO SAN ANTONIO LLC,LIMITED LIABILITY COMPANY (LLC),christin.moses@neurorestorative.com,7/6/21,29.6195,-98.4771
Mi Casa Es Su Casa,102302,ASSISTED LIVING,Bexar,TYPE B,149905,4902 E BEVERLY MAE DRIVE,San Antonio,TX,78229,(210) 614-2913,8,SUSIE M VILLARREAL,SOLE PROPRIETOR,susievillarreal1948@gmail.com,7/6/21,29.4963,-98.5831
Mission Road Developmental Center,110100,ASSISTED LIVING,Bexar,TYPE B,149005,12102 TREEWELL GLEN,San Antonio,TX,78249,(210) 561-2715,6,MISSION ROAD DEVELOPMENTAL CENTER,NONPROFIT ORGANIZATION,gbellamy@handsonsa.org,7/6/21,29.5575,-98.649
Mission Road Developmental Center  Country Breeze,938,ASSISTED LIVING,Bexar,TYPE B,149006,6706 COUNTRY BREEZE,San Antonio,TX,78240,(210) 334-2437,6,MISSION ROAD DEVELOPMENTAL CENTER,NONPROFIT ORGANIZATION,lbutler@mrmsat.org,7/6/21,29.5401,-98.6222
Mission Road Developmental Center  Country Haven,103268,ASSISTED LIVING,Bexar,TYPE B,150119,6827 COUNTRY HAVEN,San Antonio,TX,78240,(210) 558-7638,6,MISSION ROAD DEVELOPMENTAL CENTER,NONPROFIT ORGANIZATION,gbellamy@handsonsa.org,7/6/21,29.5436,-98.6224
Mission Road Developmental Centercenter Spring,103269,ASSISTED LIVING,Bexar,TYPE B,307239,7830 CENTER SPRING,San Antonio,TX,78244,(210) 688-4187,6,MISSION ROAD DEVELOPMENTAL CENTER,NONPROFIT ORGANIZATION,gbellamy@handsonsa.org,7/6/21,29.5582,-98.642
Neurorestorative San Antonio  Five Oaks,106652,ASSISTED LIVING,Bexar,TYPE B,146463,239 FIVE OAKS DR,San Antonio,TX,78209,(210) 832-0007,5,"MENTOR ABI, LLC",LIMITED LIABILITY COMPANY (LLC),christin.moses@neurorestorative.com,7/6/21,29.5081,-98.436
Newforest Estates,102550,ASSISTED LIVING,Bexar,TYPE B,147159,5034 NEWFOREST DRIVE,San Antonio,TX,78229,(210) 680-3649,32,PACIFICA SENIOR LIVING LLC,FOR-PROFIT CORPORATION,ed.newforest@pacificaseniorliving.com,7/6/21,29.4946,-98.5867
"Paam Care, Llc",106041,ASSISTED LIVING,Bexar,TYPE B,307490,322 EARLY TRAIL,San Antonio,TX,78228,(210) 888-5486,6,"PAAM CARE, LLC",LIMITED LIABILITY COMPANY (LLC),paamcare@gmail.com,7/6/21,29.4676,-98.576
Pams Home Care,104918,ASSISTED LIVING,Bexar,TYPE A,147693,2322 FRONTIER TRAIL,San Antonio,TX,78251,(210) 787-9340,6,PAMS HOME CARE,OTHER,pamshomecare@gmail.com,7/6/21,29.4581,-98.6515
Parkway Assisted Living Llc,110154,ASSISTED LIVING,Bexar,TYPE B,307334,4331 PARKWAY DRIVE,San Antonio,TX,78228,(210) 430-3675,16,PARKWAY ASSISTED LIVING LLC,LIMITED LIABILITY COMPANY (LLC),smendoza17@gmail.com,7/6/21,29.4755,-98.5903
Pecan Views Senior Care,110349,ASSISTED LIVING,Bexar,TYPE B,307869,6960 PEMBROKE RD.,San Antonio,TX,78240,(210) 444-9739,6,"AUREATE CARE, INC",FOR-PROFIT CORPORATION,alexandra@pecanviews.com,7/6/21,29.5371,-98.6254
Pembroke Angel Care Assisted Living,106271,ASSISTED LIVING,Bexar,TYPE B,145510,6655 PEMBROKE RD,San Antonio,TX,78240,(206) 491-7872,13,PEMBROKE ANGEL CARE LLC,LIMITED LIABILITY COMPANY (LLC),pembrokeangelcare@yahoo.com,7/6/21,29.5378,-98.6196
Pipestone Place Assisted Living,923,ASSISTED LIVING,Bexar,TYPE B,149223,2104 PIPESTONE DR,San Antonio,TX,78232,(210) 545-6272,16,SEV INC,FOR-PROFIT CORPORATION,info@pipestoneplace.com,7/6/21,29.5917,-98.4604
Poet'S Walk San Antonio,106687,ASSISTED LIVING,Bexar,TYPE B,145873,5438 PRESIDIO PARKWAY,San Antonio,TX,78249,(210) 839-2199,70,PRESIDIO NJ TE LLC,LIMITED LIABILITY COMPANY (LLC),wmartin@spring-hills.net,7/6/21,29.5858,-98.591
Season'S Alzheimers And Assisted Care,105623,ASSISTED LIVING,Bexar,TYPE B,148709,15170 NACOGDOCHES ROAD,San Antonio,TX,78247,(210) 584-4238,16,THE SEASONS ON TEZEL  LLC,LIMITED LIABILITY COMPANY (LLC),mbtalukdar@yahoo.com,7/6/21,29.58,-98.369
Seasons Alzheimer'S Care & Assisted Living Llc,106894,ASSISTED LIVING,Bexar,TYPE B,147422,15170 NACOGDOCHES ROAD BLDG 2,San Antonio,TX,78247,(210) 584-4238,16,SEASONS ALZHEIMER'S CARE & ASSISTED LIVING  LLC,LIMITED LIABILITY COMPANY (LLC),mbtalukdar@yahoo.com,7/6/21,29.58,-98.369
Senior Haven Assisted Living Llc,104790,ASSISTED LIVING,Bexar,TYPE B,145943,14706 HIDDEN GLEN WOODS,San Antonio,TX,78249,(210) 413-5072,8,SENIOR HAVEN ASSISTED LIVING LLC,LIMITED LIABILITY COMPANY (LLC),seniorhavenassistedliving@yahoo.com,7/6/21,29.5837,-98.5713
"Serenity Care, Llc",106953,ASSISTED LIVING,Bexar,TYPE B,307173,5683 VERBENA ROAD,San Antonio,TX,78240,(210) 245-0882,12,SERENITY CARE LLC,LIMITED LIABILITY COMPANY (LLC),esther.gheliuc@gmail.com,7/6/21,29.5341,-98.5978
Serving Faithfully Assisted Living Llc,106523,ASSISTED LIVING,Bexar,TYPE B,150276,7521 LINKVIEW ST.,San Antonio,TX,78240,(210) 716-9534,10,"SERVING FAITHFULLY ASSISTED LIVING, LLC",LIMITED LIABILITY COMPANY (LLC),serving.faithfully23@gmail.com,7/6/21,29.5078,-98.6251
Shining Stars Assisted Living Llc,110340,ASSISTED LIVING,Bexar,TYPE B,307845,401 BRYN MAWR,San Antonio,TX,78209,(210) 777-1039,16,SHINING STARS ASSISTED LIVING LLC,LIMITED LIABILITY COMPANY (LLC),ihpoftexas@yahoo.com,7/6/21,29.4908,-98.4449
Silver Lake Casa Del Sol,103082,ASSISTED LIVING,Bexar,TYPE A,149407,4330 SILVER LAKE DR,San Antonio,TX,78219,(210) 359-1970,7,PAZMINO ENTERPRISES INC,FOR-PROFIT CORPORATION,,7/6/21,29.4342,-98.4089
Sodalis At Stone Oak,106767,ASSISTED LIVING,Bexar,TYPE B,147611,25690 WILDERNESS OAKS,San Antonio,TX,78261,(830) 624-1044,66,"SODALIS ELDER LIVING STONE OAK ASSISTED LIVING, LLC",LIMITED LIABILITY COMPANY (LLC),jwycoff@sodalissenior.com,7/6/21,29.6814,-98.4386
Southern Care Assisted Living Llc,106739,ASSISTED LIVING,Bexar,TYPE B,308285,8919 SADDLE TRAIL,San Antonio,TX,78255,(210) 727-5353,7,SOUTHERN CARE ASSISTED LIVING LLC,LIMITED LIABILITY COMPANY (LLC),dan.cosa@yahoo.com,7/6/21,29.6678,-98.6618
St Marys Assisted Living Inc,10230,ASSISTED LIVING,Bexar,TYPE A,150093,1618 S SAINT MARYS,San Antonio,TX,78210,(210) 532-7698,40,ST MARYS ASSISTED LIVING INC,FOR-PROFIT CORPORATION,stmarys1618@hotmail.com,7/6/21,29.4052,-98.4857
Starlight Homes Assisted Living,105156,ASSISTED LIVING,Bexar,TYPE B,147101,4623 BRIARDALE ST,San Antonio,TX,78217,(210) 599-2707,12,SHINES ASSISTED LIVING CARE  LLC,LIMITED LIABILITY COMPANY (LLC),starlighthomestx@gmail.com,7/6/21,29.5672,-98.4011
Sunshine Senior Living,104245,ASSISTED LIVING,Bexar,TYPE B,307550,22310 CIELO VISTA,San Antonio,TX,78255,(210) 781-4873,9,SUNSHINE SENIOR LIVING LLC,LIMITED LIABILITY COMPANY (LLC),fbahnean@yahoo.com,7/6/21,29.6496,-98.6417
Susan Home Care,102130,ASSISTED LIVING,Bexar,TYPE A,145932,8426 CASCADE RIDGE DR,San Antonio,TX,78239,(210) 630-9982,10,"SUSAN HOME CARE, INC",FOR-PROFIT CORPORATION,susanhomecare@yahoo.com,7/6/21,29.5143,-98.331
The Army Residence Community Health Care Center,523,ASSISTED LIVING,Bexar,TYPE B,149234,7402 CRESTWAY DRIVE,San Antonio,TX,78239,(210) 646-5200,30,THE ARMY RETIREMENT RESIDENCE FOUNDATION SAN ANTONIO INC,NONPROFIT ORGANIZATION,lyoung@armyresidence.com,7/6/21,29.5209,-98.3426
The Canyons Of Stone Oak Memory Care,105829,ASSISTED LIVING,Bexar,TYPE B,146053,20271 STONE OAK PARKWAY,San Antonio,TX,78258,(210) 497-5200,50,STONE OAK MEMORY CARE LLC,FOR-PROFIT CORPORATION,ed@canyonsmemorycare.com,7/6/21,29.6448,-98.475
The Cottages On Danny Kaye A,106324,ASSISTED LIVING,Bexar,TYPE B,149067,5962 DANNY KAYE,San Antonio,TX,78240,(210) 540-8288,16,"RESIDENTIAL CARE HOMES OF AMERICA, LLC",LIMITED LIABILITY COMPANY (LLC),danny@changingseasonsliving.com,7/6/21,29.511,-98.5968
The Cottages On Danny Kaye B,106326,ASSISTED LIVING,Bexar,TYPE B,148868,5962 DANNY KAYE,San Antonio,TX,78240,(210) 233-9099,16,"RESIDENTIAL CARE HOMES OF AMERICA, LLC",LIMITED LIABILITY COMPANY (LLC),danny@changingseasonsliving.com,7/6/21,29.511,-98.5968
The Etta  Assisted Living At Shavano Park,50670,ASSISTED LIVING,Bexar,TYPE A,307668,4096 DEZAVALA,San Antonio,TX,78249,(210) 408-7411,120,"PAL SHAVANO PARK TRS, LLC",LIMITED LIABILITY COMPANY (LLC),etrout@aventinehc.com,7/6/21,29.568,-98.6129
The Etta  Memory Care At Shavano Park,50689,ASSISTED LIVING,Bexar,TYPE B,307792,4096 DEZAVALA,San Antonio,TX,78249,(210) 408-7411,30,"PAL SHAVANO PARK TRS, LLC",LIMITED LIABILITY COMPANY (LLC),etrout@aventinehc.com,7/6/21,29.568,-98.6129
"The Grandview Of Westover Hills, Llc",105750,ASSISTED LIVING,Bexar,TYPE B,307679,8627 LAKESIDE PARKWAY,San Antonio,TX,78245-3261,(210) 810-4900,60,"THE GRANDVIEW OF WESTOVER HILLS, LLC",LIMITED LIABILITY COMPANY (LLC),drodriguez@trilogysenior.com,7/6/21,29.4321,-98.6553
The Haven In Stone Oak,101357,ASSISTED LIVING,Bexar,TYPE B,307639,511 KNIGHTS CROSS DRIVE,San Antonio,TX,78258,210 4042687,60,SNH LONGHORN TENANT LLC,LIMITED LIABILITY COMPANY (LLC),licensing@5ssl.com,7/6/21,29.6338,-98.5011
The Heritage At Westover Hills,106655,ASSISTED LIVING,Bexar,TYPE B,307337,4315 ROGERS ROAD,San Antonio,TX,78251,(210) 681-8638,132,"PAL WESTOVER HILLS TRS, LLC",LIMITED LIABILITY COMPANY (LLC),alex@pal-partners.com,7/6/21,29.4756,-98.6943
The Inn At Los Patios,793,ASSISTED LIVING,Bexar,TYPE A,149721,8700 POST OAK LN,San Antonio,TX,78217,(210) 829-7357,30,"CANTON II, INC",NONPROFIT ORGANIZATION,ddifrancesco@rcmseniorliving.com,7/6/21,29.5194,-98.4331
The Kaulbach Assisted Living Center,697,ASSISTED LIVING,Bexar,TYPE B,150059,602 BABCOCK RD,San Antonio,TX,78201,(210) 731-1204,88,MORNINGSIDE MINISTRIES,NONPROFIT ORGANIZATION,dion.munoz@mmliving.org,7/6/21,29.4758,-98.5487
The Landing At Stone Oak,105598,ASSISTED LIVING,Bexar,TYPE B,144190,19110 HUEBNER ROAD,San Antonio,TX,78258,(210) 479-0155,67,SA NORTH OP CO  LLC,LIMITED LIABILITY COMPANY (LLC),cmorris@fpliving.com,7/6/21,29.6199,-98.5144
The Laurels In Stone Oak,101554,ASSISTED LIVING,Bexar,TYPE A,307617,575 KNIGHTS CROSS DRIVE,San Antonio,TX,78258,210 2490991,62,SNH LONGHORN TENANT LLC,LIMITED LIABILITY COMPANY (LLC),licensing@5ssl.com,7/6/21,29.6335,-98.4999
The Laurels In Stone Oak,101354,ASSISTED LIVING,Bexar,TYPE B,307893,575 KNIGHTS CROSS DRIVE,San Antonio,TX,78258,210 2490991,62,SNH LONGHORN TENANT LLC,LIMITED LIABILITY COMPANY (LLC),licensing@5ssl.com,7/6/21,29.6335,-98.4999
The Lodge At Leon Springs,30092,ASSISTED LIVING,Bexar,TYPE A,146667,24137 BOERNE STAGE RD,San Antonio,TX,78255,(210) 698-9365,14,LEON SPRINGS LODGE LLC,LIMITED LIABILITY COMPANY (LLC),rschroeder24137@gmail.com,7/6/21,29.6631,-98.6366
The Renaissance House Inc,969,ASSISTED LIVING,Bexar,TYPE A,148128,227 SARATOGA,San Antonio,TX,78213,(210) 348-9678,6,THE RENAISSANCE HOUSE INC,FOR-PROFIT CORPORATION,renaissancehouse@sbcglobal.net,7/6/21,29.5013,-98.5336
The Season On Tezel,106221,ASSISTED LIVING,Bexar,TYPE B,149942,8245 OLD TEZEL ROAD,San Antonio,TX,78250,(210) 584-4238,16,THE SEASONS ON TEZEL  LLC,LIMITED LIABILITY COMPANY (LLC),mbtalukdar@yahoo.com,7/6/21,29.518,-98.6601
The Seasons On Tezel,106217,ASSISTED LIVING,Bexar,TYPE B,146889,8245 OLD TEZEL ROAD BLDG. 2,San Antonio,TX,78250,(210) 584-4238,16,THE SEASONS ON TEZEL  LLC,LIMITED LIABILITY COMPANY (LLC),mbtalukdar@yahoo.com,7/6/21,29.518,-98.6601
The Special Care Center At The Forum At Lincoln Heights,10295,ASSISTED LIVING,Bexar,TYPE B,307750,311 WEST NOTTINGHAM,San Antonio,TX,78209,210 8242314,88,SNH LONGHORN TENANT LLC,LIMITED LIABILITY COMPANY (LLC),licensing@5ssl.com,7/6/21,29.5009,-98.472
The Village At Incarnate Word,777,ASSISTED LIVING,Bexar,TYPE A,145022,4707 BROADWAY,San Antonio,TX,78209,(210) 829-7561,42,INCARNATE WORD RETIREMENT COMMUNITY INC,NONPROFIT ORGANIZATION,ruth.esparza@thevillageiw.org,7/6/21,29.4693,-98.4638
The William  Assisted Living,30265,ASSISTED LIVING,Bexar,TYPE A,307793,9203 CINNAMON HILL,San Antonio,TX,78240,(210) 641-5046,100,"PAL CINNAMON HILL TRS, LLC",LIMITED LIABILITY COMPANY (LLC),hvrana@aventinehc.com,7/6/21,29.5288,-98.583
The William  Memory Care Cottage A,30324,ASSISTED LIVING,Bexar,TYPE B,307676,9303 CINNAMON HILL,San Antonio,TX,78240,(210) 641-5046,14,"PAL CINNAMON HILL TRS, LLC",LIMITED LIABILITY COMPANY (LLC),hvrana@aventinehc.com,7/6/21,29.5303,-98.5829
The William  Memory Care Cottage B,30333,ASSISTED LIVING,Bexar,TYPE B,307693,9303 CINNAMON HILL,San Antonio,TX,78240,(210) 641-5046,14,"PAL CINNAMON HILL TRS, LLC",LIMITED LIABILITY COMPANY (LLC),hvrana@aventinehc.com,7/6/21,29.5303,-98.5829
The William  Memory Care Cottage C,104309,ASSISTED LIVING,Bexar,TYPE B,307822,9303 CINNAMON HILL,San Antonio,TX,78240,(210) 641-5046,14,"PAL CINNAMON HILL TRS, LLC",LIMITED LIABILITY COMPANY (LLC),hvrana@aventinehc.com,7/6/21,29.5303,-98.5829
Ventura Hills,100252,ASSISTED LIVING,Bexar,TYPE A,307221,1207 JACKSON KELLER ROAD,San Antonio,TX,78213,(210) 375-8132,160,AMERICAN EAGLE CASTLE HILLS LLC,LIMITED LIABILITY COMPANY (LLC),cory@americaneaglelifecare.com,7/6/21,29.5066,-98.5115
Ventura Hills,100251,ASSISTED LIVING,Bexar,TYPE B,307296,1207 JACKSON KELLER RD,San Antonio,TX,78213,(210) 375-8132,31,AMERICAN EAGLE CASTLE HILLS LLC,LIMITED LIABILITY COMPANY (LLC),cory@americaneaglelifecare.com,7/6/21,29.5066,-98.5115
Woodcrest Home For Senior Citizens,100002,ASSISTED LIVING,Bexar,TYPE B,148216,11307 FOREST SHOWER,San Antonio,TX,78233,(210) 599-3053,10,VILMA D STOLZE,SOLE PROPRIETORSHIP,kestolze@yahoo.com,7/6/21,29.5419,-98.3507
Alpha Senior Care Home,105889,ASSISTED LIVING,Bexar,TYPE B,150080,96 WINDMILL ROAD,Shavano Park,TX,78231,(210) 290-9131,6,ALPHA SENIOR CARE HOME LLC,LIMITED LIABILITY COMPANY (LLC),gregorybila@gmail.com,7/6/21,29.5833,-98.5514
Shavano Park Senior Living,106436,ASSISTED LIVING,Bexar,TYPE B,148783,3220 N. LOOP 1604 W,Shavano Park,TX,78231,(210) 492-4040,90,MERIDIAN SHAVANO PARK ALALZ OE  LP,LIMITED PARTNERSHIP,shavanoparked@isllc.com,7/6/21,29.6007,-98.5446
Henry House Assisted Living Lc,522,ASSISTED LIVING,Blanco,TYPE A,145965,515 3RD ST,Blanco,TX,78606,(830) 833-4674,42,HENRY HOUSE ASSISTED LIVING LC,LIMITED LIABILITY COMPANY (LLC),gradyeli@gvtc.com,7/6/21,30.0969,-98.4234
College Hill Assisted Living,103643,ASSISTED LIVING,Bosque,TYPE B,146326,1700 W 9TH ST,Clifton,TX,76634,(254) 675-8637,32,LUTHERAN SUNSET MINISTRIES,NONPROFIT ORGANIZATION,sbradley@lutheransunset.org,7/6/21,31.7761,-97.5866
Autumn Wind New Boston,107018,ASSISTED LIVING,Bowie,TYPE B,148302,1 AUTUMN CIRCLE,New Boston,TX,75570,(903) 628-0477,75,M & B NEW BOSTON LLC,LIMITED LIABILITY COMPANY (LLC),trk82009@hotmail.com,7/6/21,33.4618,-94.4092
Brookdale Texarkana,759,ASSISTED LIVING,Bowie,TYPE B,148328,4204 MOORES LN,Texarkana,TX,75503,(903) 838-3562,50,"BROOKDALE SENIOR LIVING COMMUNITIES, INC",FOR-PROFIT CORPORATION,aganjizadeh@brookdale.com,7/6/21,33.4719,-94.0954
Cornerstone Retirement Community Personal Care Unit,326,ASSISTED LIVING,Bowie,TYPE B,146736,4100 MOORES LN,Texarkana,TX,75503,(903) 832-5515,66,METHODIST RETIREMENT COMMUNITIES,NONPROFIT ORGANIZATION,jbradford@mrcaff.org,7/6/21,33.4742,-94.0945
Mshc Colonial Lodge Of Texarkana Llc,30066,ASSISTED LIVING,Bowie,TYPE A,148652,5001 N ELIZABETH,Texarkana,TX,75503,(903) 792-0838,45,MSHC COLONIAL LODGE OF TEXARKANA LLC,LIMITED LIABILITY COMPANY (LLC),carlamidsouth@gmail.com,7/6/21,33.4679,-94.0497
Mshc The Oaks Assisted Living Llc,937,ASSISTED LIVING,Bowie,TYPE A,148562,4317 MCKNIGHT RD,Texarkana,TX,75503,(903) 838-5001,80,MSHC THE OAKS ASSISTED LIVING LLC,LIMITED LIABILITY COMPANY (LLC),carlamidsouth@gmail.com,7/6/21,33.4641,-94.0968
Mshc The Oaks Assisted Living Llc,106791,ASSISTED LIVING,Bowie,TYPE B,148549,4317 B MCKNIGHT RD,Texarkana,TX,75503,(903) 838-5001,16,MSHC THE OAKS ASSISTED LIVING LLC,LIMITED LIABILITY COMPANY (LLC),carlamidsouth@gmail.com,7/6/21,33.4641,-94.0968
Mshc Whispering Pines Of Texarkana Llc,30351,ASSISTED LIVING,Bowie,TYPE A,148250,5002 N ELIZABETH,Texarkana,TX,75503,(903) 792-8014,55,MSHC WHISPERING PINES OF TEXARKANA  LLC,LIMITED LIABILITY COMPANY (LLC),carlamidsouth@gmail.com,7/6/21,33.4684,-94.0489
The Magnolia Alzheimer'S Assisted Living,104639,ASSISTED LIVING,Bowie,TYPE B,147454,4205 RICHMOND MEADOWS,Texarkana,TX,75503,(903) 838-7319,40,OLMM PROPERTIES LLC,LIMITED LIABILITY COMPANY (LLC),carla@magnoliaalf.com,7/6/21,33.4619,-94.0952
The Retreat At Kenwood,106200,ASSISTED LIVING,Bowie,TYPE B,147100,210 N. KENWOOD,Texarkana,TX,75501,(903) 336-6134,80,THE RETREAT AT KENWOOD INC,FOR-PROFIT CORPORATION,rickeyr@cableone.net,7/6/21,33.4432,-94.089
Desire To Live,104341,ASSISTED LIVING,Brazoria,TYPE B,149003,2220 CR 144,Alvin,TX,77511,(832) 512-3863,9,DESIRE TO LIVE,NONPROFIT ORGANIZATION,desiretolive@sbcglobal.net,7/6/21,29.4617,-95.2743
Evening Star Personal Care Home,50756,ASSISTED LIVING,Brazoria,TYPE B,308053,2960 ROWAN BURTON RD,Alvin,TX,77511,(281) 331-6753,16,"MVSSL, INC",SOLE PROPRIETOR,eveningstarpch@aol.com,7/6/21,29.3982,-95.2726
Kozy Korner Assisted Living,102809,ASSISTED LIVING,Brazoria,TYPE B,147348,1501 PARKWAY,Alvin,TX,77511,(281) 245-6119,6,VSSL INVESTMENT INC,FOR-PROFIT CORPORATION,kozykornerassistedlivinghome@gmail.com,7/6/21,29.4104,-95.2747
Laboring With Loved Ones Personal Care Home,105031,ASSISTED LIVING,Brazoria,TYPE B,148834,6911 COUNTY RD 171,Alvin,TX,77511,(281) 581-9991,8,ALVIN LABOR OF LOVE MINISTRIES,NONPROFIT ORGANIZATION,laboroflove6@aol.com,7/6/21,29.3153,-95.2524
Country Village Care Inc,105654,ASSISTED LIVING,Brazoria,TYPE B,148953,721 W MULBERRY,Angleton,TX,77515,(979) 849-8281,32,COUNTRY VILLAGE CARE INC,FOR-PROFIT CORPORATION,lisa@gretherseniorliving.com,7/6/21,29.1626,-95.4442
Country Village Care Inc P C,918,ASSISTED LIVING,Brazoria,TYPE A,146432,721 W MULBERRY,Angleton,TX,77515,(979) 849-8281,38,COUNTRY VILLAGE CARE INC,FOR-PROFIT CORPORATION,lisa@gretherseniorliving.com,7/6/21,29.1626,-95.4442
K'S Place Personal Care Home Llc,106477,ASSISTED LIVING,Brazoria,TYPE B,149488,25806 CR 46,Angleton,TX,77515,(979) 922-1800,12,K'S PLACE PERSONAL CARE HOME  LLC,LIMITED LIABILITY COMPANY (LLC),kkassman@ksplacepch.org,7/6/21,29.2237,-95.3566
White'S Cottage Center,712,ASSISTED LIVING,Brazoria,TYPE A,147161,332 MARSHALL ALLEY,Angleton,TX,77515,(979) 849-4744,16,WHITE'S COTTAGE CENTER,NONPROFIT ORGANIZATION,whitescottage@aol.com,7/6/21,29.167,-95.436
Carriage Innlake Jackson,105675,ASSISTED LIVING,Brazoria,TYPE B,149461,130 LAKE ROAD,Lake Jackson,TX,77566,(979) 285-0300,50,"CARDINAL BAY, INC",NONPROFIT ORGANIZATION,klawson@rcmseniorliving.com,7/6/21,29.0373,-95.4588
Elmcroft Of Lake Jackson,30051,ASSISTED LIVING,Brazoria,TYPE B,148996,206 OAK DRIVE SOUTH,Lake Jackson,TX,77566,(979) 297-5577,108,"EC OPCO LAKE JACKSON, LLC",LIMITED LIABILITY COMPANY (LLC),tsoileau@elmcroft.com,7/6/21,29.0324,-95.4549
Revered Texan Hearth & Home Llc,980,ASSISTED LIVING,Brazoria,TYPE B,307476,1005 SYCAMORE STREET,Lake Jackson,TX,77566,(979) 266-9982,13,"CNM LONG TERM CARE, LLC",LIMITED LIABILITY COMPANY (LLC),owner@reveredtexan.com,7/6/21,29.0203,-95.4276
Orchard Park At Southfork,105865,ASSISTED LIVING,Brazoria,TYPE B,147093,3151 SOUTHFORK PARKWAY,Manvel,TX,77578,(713) 960-4727,136,"SOUTHFORK SENIOR CARE, LLC",LIMITED PARTNERSHIP,pear.adm@meridiansenior.com,7/6/21,29.5393,-95.3886
"Six Palms At Damoor Estates, Llc",105398,ASSISTED LIVING,Brazoria,TYPE B,147082,5409 CROIX RD,Manvel,TX,77578,(281) 692-9226,15,SIX PALMS AT DAMOOR ESTATES LLC,LIMITED LIABILITY COMPANY (LLC),jackie.moore0703@gmail.com,7/6/21,29.5107,-95.3695
Autumn Grovepearland,104029,ASSISTED LIVING,Brazoria,TYPE B,147714,3403 SOUTHFORK PARKWAY,Pearland,TX,77578,(281) 489-1505,16,GLEN HOPE HARBOR INC,NONPROFIT ORGANIZATION,sherifuller@autumngrove.com,7/6/21,29.5366,-95.3897
Brookdale Pearland,30110,ASSISTED LIVING,Brazoria,TYPE A,147768,2121 SCARSDALE BLVD,Pearland,TX,77581,(281) 464-8740,84,ARC PEARLAND L P,LIMITED PARTNERSHIP,pclark14@brookdale.com,7/6/21,29.5691,-95.2275
Brookdale Pearland,30227,ASSISTED LIVING,Brazoria,TYPE B,149937,2121 SCARSDALE BLVD,Pearland,TX,77581,(281) 464-8740,19,ARC PEARLAND L P,LIMITED PARTNERSHIP,bkdprland@brookdale.com,7/6/21,29.5691,-95.2275
Colonial Oaks At Pearland,103887,ASSISTED LIVING,Brazoria,TYPE B,146615,2940 CULLEN PARKWAY,Pearland,TX,77584,(281) 997-2500,108,"COLONIAL OAKS SENIOR LIVING PEARLAND MANAGEMENT TX, LLC",LIMITED LIABILITY COMPANY (LLC),lakeydap@varalto.com,7/6/21,29.5544,-95.3496
Creekside Alzheimer'S Special Care Center,104926,ASSISTED LIVING,Brazoria,TYPE B,307868,11200 DISCOVERY BAY DRIVE,Pearland,TX,77584,713 4363941,45,SH1 DISCOVERY HOUSTON OPCO LLC,LIMITED LIABILITY COMPANY (LLC),pearlandgrove-adm@jeaseniorliving.com,7/6/21,29.5697,-95.3929
Lakehouse On Dixie,105090,ASSISTED LIVING,Brazoria,TYPE B,150178,3504 DIXIE FARM ROAD,Pearland,TX,77581,(281) 992-2650,14,LAKEHOUSE ON DIXIE INC,FOR-PROFIT CORPORATION,sarita@lakehouseondixie.com,7/6/21,29.5413,-95.2411
Landing At Watercrest Shadow Creek Ranch,110243,ASSISTED LIVING,Brazoria,TYPE B,307561,2907 BROADWAY BEND DR.,Pearland,TX,77584,(832) 305-9000,129,PEARLAND AL GROUP LP,LIMITED PARTNERSHIP,dbailey@integratedsl.com,7/6/21,29.557,-95.4007
Light Heart Memory Care  Pearland,105584,ASSISTED LIVING,Brazoria,TYPE B,148572,6923 AMIE LN,Pearland,TX,77584,(281) 282-0770,8,ALZHEIMER'S RESIDENTIAL MANAGEMENT INC,FOR-PROFIT CORPORATION,office@lightheartmc.com,7/6/21,29.5251,-95.2997
Proverbial Care,106727,ASSISTED LIVING,Brazoria,TYPE B,146753,4604 W. WALNUT,Pearland,TX,77581,(281) 412-4444,16,ETTE ENTERPRISES  INC,FOR-PROFIT CORPORATION,proverbialcare@att.net,7/6/21,29.5594,-95.2944
Trinity Oaks Of Pearland,100756,ASSISTED LIVING,Brazoria,TYPE A,149344,3033 PEARLAND PKWY,Pearland,TX,77581,(281) 997-8880,120,CHG SENIOR LIVING OF PEARLAND LLC,LIMITED LIABILITY COMPANY (LLC),sandral@chghospitals.com,7/6/21,29.5519,-95.2658
The Fountains,102247,ASSISTED LIVING,Brazoria,TYPE B,148724,1101 E 2ND ST,Sweeny,TX,77480,(979) 548-1524,46,SWEENY HOSPITAL DISTRICT,HOSPITAL DISTRICT/AUTHORITY,tdailey@sweenyhospital.org,7/6/21,29.0475,-95.6906
Broadmoor Place,495,ASSISTED LIVING,Brazos,TYPE B,148061,2601 E VILLA MARIA,Bryan,TX,77802,(979) 823-4446,36,MILLICAN AID OPCO LLC,LIMITED LIABILITY COMPANY (LLC),alclicense@enlivant.com,7/6/21,30.668,-96.3474
Carriage Innbryan,105402,ASSISTED LIVING,Brazos,TYPE B,149380,4235 BOONVILLE RD,Bryan,TX,77802,(979) 731-1300,41,"CARDINAL BAY, INC",NONPROFIT ORGANIZATION,klawson@rcmseniorliving.com,7/6/21,30.6645,-96.305
Crestview Retirement Community,104850,ASSISTED LIVING,Brazos,TYPE B,148692,2505 E VILLA MARIA RD,Bryan,TX,77802,(979) 776-4778,72,MRC CRESTVIEW,NONPROFIT ORGANIZATION,madams@mrcaff.org,7/6/21,30.6602,-96.3477
Dansby House Inc,946,ASSISTED LIVING,Brazos,TYPE A,148067,703 DEAN,Bryan,TX,77803,(979) 823-1030,8,DANSBY HOUSE INC,FOR-PROFIT CORPORATION,dansbyhouse@gmail.com,7/6/21,30.6832,-96.3845
Hudson Creek Alzheimer'S Special Care Center,102654,ASSISTED LIVING,Brazos,TYPE B,150218,3850 COPPERCREST DR,Bryan,TX,77802,(979) 774-0700,66,BRYAN SENIOR HOUSING I OPCO  LLC,LIMITED LIABILITY COMPANY (LLC),jamie.daprile@jeaseniorliving.com,7/6/21,30.6517,-96.3002
Isle At Watercrestbryan,104683,ASSISTED LIVING,Brazos,TYPE B,149390,4091 EASTCHESTER DRIVE,Bryan,TX,77802,(979) 774-3401,98,CHP ISLE AT WATERCRESTBRYAN TX TENANT CORP,FOR-PROFIT CORPORATION,dbailey@integratedsl.com,7/6/21,30.6584,-96.2904
Parc At Traditions,106931,ASSISTED LIVING,Brazos,TYPE B,148642,3095 CLUB DRIVE,Bryan,TX,77807,(979) 213-4200,80,PARC TRADITIONS  LP,LIMITED PARTNERSHIP,wdeweese@parccommunities.com,7/6/21,30.601,-96.3891
Park Place,903,ASSISTED LIVING,Brazos,TYPE A,145439,8733 N HWY 6,Bryan,TX,77807,(979) 778-3003,16,HEALTH ENRICHMENT AND LONGEVITY INSTITUTE INC,FOR-PROFIT CORPORATION,parkplaceal@yahoo.com,7/6/21,30.6699,-96.4522
St Joseph Manor,30358,ASSISTED LIVING,Brazos,TYPE B,147360,2333 MANOR DR,Bryan,TX,77802,(979) 821-7330,44,ST JOSEPH MANOR,NONPROFIT ORGANIZATION,tsimmons@st-joseph.org,7/6/21,30.6588,-96.3513
Bluebonnet Place,621,ASSISTED LIVING,Brazos,TYPE B,148417,3601 VICTORIA AVE,College Station,TX,77845,(979) 693-9699,48,BLUEBONNET AID OPCO LLC,LIMITED LIABILITY COMPANY (LLC),alclicense@enlivant.com,7/6/21,30.5701,-96.2978
Mrc The Langford,107163,ASSISTED LIVING,Brazos,TYPE B,307184,1851 CARROLL FANCHER WAY,College Station,TX,77845,(979) 704-6600,66,MRC SENIOR LIVING DBA MRC THE LANGFORD,NONPROFIT ORGANIZATION,snehring@mrcaff.org,7/6/21,30.5716,-96.2688
Peach Creek Alf #1 Llc,110307,ASSISTED LIVING,Brazos,TYPE B,307747,1488 STOKES CIRCLE,College Station,TX,77845,(979) 431-4135,16,PEACH CREEK ALF #1 LLC,LIMITED LIABILITY COMPANY (LLC),peachcreek.rharris@gmail.com,7/6/21,30.5321,-96.2047
"Sodalis Operating Company, Llccollege Station Operations",110347,ASSISTED LIVING,Brazos,TYPE B,307866,3211 HARVEY RD,College Station,TX,77845,,120,"SODALIS OPERATING COMPANY, LLC",LIMITED LIABILITY COMPANY (LLC),jsulik@trilogysenior.com,7/6/21,30.6427,-96.2904
The Waterford At College Station,727,ASSISTED LIVING,Brazos,TYPE B,149672,1103 ROCK PRAIRIE RD,College Station,TX,77845,(979) 694-6496,60,CSL CE COLLEGE STATION  LLC,LIMITED LIABILITY COMPANY (LLC),rmiller@capitalseniorliving.net,7/6/21,30.5799,-96.3017
Redstone Park,312,ASSISTED LIVING,Brown,TYPE B,145298,2410 SONGBIRD CIR,Brownwood,TX,76801,(325) 643-9056,70,LIVE OAKS HOLDINGS LLC,LIMITED LIABILITY COMPANY (LLC),j.harper@redstonepark.com,7/6/21,31.6813,-98.9922
The Chatfield Assisted Living,104032,ASSISTED LIVING,Brown,TYPE B,145774,1605 CALVERT ROAD,Brownwood,TX,76804,(325) 200-4904,60,"BROWNWOOD I ENTERPRISES, LLC",LIMITED LIABILITY COMPANY (LLC),linda_huggins@csnhc.com,7/6/21,31.6774,-98.9722
Aldersgate Enrichment Center Inc,102913,ASSISTED LIVING,Brown,TYPE A,149441,5001 HWY 183/84 E,Early,TX,76802,(325) 646-5608,14,ALDERSGATE ENRICHMENT CENTER INC,NONPROFIT ORGANIZATION,info@aldersgatecenter.org,7/6/21,31.7413,-98.9248
Aldersgate Enrichment Center Inc,30226,ASSISTED LIVING,Brown,TYPE A,146845,5001 HWY 183/84 E,Early,TX,76802,(325) 646-5608,9,ALDERSGATE ENRICHMENT CENTER INC,NONPROFIT ORGANIZATION,info@aldersgatecenter.org,7/6/21,31.7413,-98.9248
Rolling Oaks Personal Care Inc,354,ASSISTED LIVING,Brown,TYPE A,147865,5151 CR 292,Early,TX,76802,(325) 646-4771,16,VICKIE E RICE,SOLE PROPRIETOR,rollingoakspc@aol.com,7/6/21,31.755,-98.8975
Copperas Hollow Nursing & Rehabilitation Center,103836,ASSISTED LIVING,Burleson,TYPE A,148426,343 COUNTRY CLUB DR,Caldwell,TX,77836,(979) 567-6400,16,TICKNOR ENTERPRISES CALDWELL LLC,LIMITED LIABILITY COMPANY (LLC),jodie.ellis@southerncrossltc.com,7/6/21,30.5438,-96.7112
Country Oaks At Hamilton Creek,101942,ASSISTED LIVING,Burnet,TYPE B,149063,407 W JACKSON ST,Burnet,TX,78611,(512) 756-4724,60,COUNTRY OAKS ASSISTED LIVING,LIMITED LIABILITY COMPANY (LLC),info@countryoaksliving.com,7/6/21,30.7553,-98.2314
Pafford Place,100800,ASSISTED LIVING,Burnet,TYPE A,146522,615 CR 340 A,Burnet,TX,78611,(512) 756-7854,16,"DMKF, INC",FOR-PROFIT CORPORATION,dmkf@earthlink.net,7/6/21,30.7334,-98.2278
800 Claremont,100058,ASSISTED LIVING,Burnet,TYPE A,145946,800 CLAREMONT,Marble Falls,TX,78654,(830) 693-6446,35,MARBLE FALLS ASSISTED LIVING LLC,LIMITED LIABILITY COMPANY (LLC),marblefallsassistedliving@gmail.com,7/6/21,30.5842,-98.2684
Arbor House Of Marble Falls,105513,ASSISTED LIVING,Burnet,TYPE B,148149,1801 KING ROAD,Marble Falls,TX,78654,(830) 613-3260,52,MARBLE FALLS TX ARBOR HOUSE LP,LIMITED PARTNERSHIP,shaye@arborhouseliving.com,7/6/21,30.5855,-98.2636
Gateway Gardens,101238,ASSISTED LIVING,Burnet,TYPE B,146322,605 GATEWAY CENTRAL,Marble Falls,TX,78654,(830) 693-1903,52,SNH SE TENANT TRS INC,FOR-PROFIT CORPORATION,licensing@5ssl.com,7/6/21,30.5602,-98.2739
Gateway Villa,875,ASSISTED LIVING,Burnet,TYPE A,146251,601 STEVE HAWKINS PKWY,Marble Falls,TX,78654,(830) 693-1800,32,SNH SE TENANT TRS INC,FOR-PROFIT CORPORATION,licensing@5ssl.com,7/6/21,30.5607,-98.2746
"Garden Gate Assisted Living Of Lockhart, Llc",103391,ASSISTED LIVING,Caldwell,TYPE A,150296,1017 BOIS D'ARC ST,Lockhart,TX,78644,(512) 620-0900,16,"GARDEN GATE HOLDINGS OF LOCKHART, LLC",LIMITED LIABILITY COMPANY (LLC),carol@lockhartassistedliving.com,7/6/21,29.885,-97.686
Golden Age Home Personal Care,767,ASSISTED LIVING,Caldwell,TYPE B,150141,1505 S MAIN ST,Lockhart,TX,78644,(512) 398-2421,44,GOLDEN AGE HOME,NONPROFIT ORGANIZATION,nburnett@goldenagehome.com,7/6/21,29.8657,-97.6705
Liveoak Living Community,101807,ASSISTED LIVING,Caldwell,TYPE A,149795,7343 FM 621,Martindale,TX,78655,(512) 357-1510,16,THERAPEUTIC COMMUNITIES LLC,LIMITED LIABILITY COMPANY (LLC),ll@liveoakliving.com,7/6/21,29.812,-97.8566
Rescare Premier Roca Vista,763,ASSISTED LIVING,Caldwell,TYPE A,148403,320 MILL RD,Maxwell,TX,78656,(512) 357-6022,8,TANGRAM REHABILITATION NETWORK INC,FOR-PROFIT CORPORATION,licenses@brightspringhealth.com,7/6/21,29.8775,-97.8478
Rescare Premier Sierra Verde,435,ASSISTED LIVING,Caldwell,TYPE A,148995,2385 FM 1984 AT REEDVILLE,Maxwell,TX,78656,(512) 357-6033,8,TANGRAM REHABILITATION NETWORK INC,FOR-PROFIT CORPORATION,licenses@brightspringhealth.com,7/6/21,29.8923,-97.8185
Trinity Shores Of Port Lavaca,102951,ASSISTED LIVING,Calhoun,TYPE B,149497,201 TRINITY SHORES DR,Port Lavaca,TX,77979,(361) 552-2333,100,CHG SENIOR LIVING OF PORT LAVACA  LLC,LIMITED LIABILITY COMPANY (LLC),sandral@chghospitals.com,7/6/21,28.6322,-96.6443
Spanish Meadows,734,ASSISTED LIVING,Cameron,TYPE A,150117,440 E RUBEN M TORRES BLVD,Brownsville,TX,78520,(956) 546-7378,94,EMPIRE SPANISH MEADOWS LTD,LIMITED PARTNERSHIP,mnolazco@smmccorp.com,7/6/21,25.9502,-97.514
Angelcare Acres,100341,ASSISTED LIVING,Cameron,TYPE B,149293,27927 SOUTH PALM BLVD,Harlingen,TX,78552,(956) 357-3317,14,ANGELCARE HOMES LLC,LIMITED LIABILITY COMPANY,jan@angelcarehome.com,7/6/21,26.1535,-97.7416
Angelcare Haven,101249,ASSISTED LIVING,Cameron,TYPE B,149701,2509 CLIFFORD DR,Harlingen,TX,78550,(956) 564-1473,16,ANGELCARE HOMES LLC,LIMITED LIABILITY COMPANY,jan@angelcarehome.com,7/6/21,26.1814,-97.6666
Golden Palms Rehabilitation And Retirement,721,ASSISTED LIVING,Cameron,TYPE A,307454,2101 TREASURE HILLS BOULEVARD,Harlingen,TX,78550,956 4303100,51,SANTIAGO HEALTHCARE INC,FOR-PROFIT CORPORATION,renewals@ensignservices.net,7/6/21,26.1755,-97.667
Valley View Senior Living,30052,ASSISTED LIVING,Cameron,TYPE B,149420,900 CAMELOT DR,Harlingen,TX,78550,(956) 226-0630,129,CSL HARLINGEN COURT  LLC,LIMITED LIABILITY COMPANY (LLC),ed@valleyviewsl.com,7/6/21,26.1632,-97.6743
Wood Living Center Of Harlingen 6,101432,ASSISTED LIVING,Cameron,TYPE A,148001,715 N AVE H,Harlingen,TX,78550,(956) 428-7012,16,WOOD CARE CENTERS INC,LIMITED PARTNERSHIP,braden.wood@thewoodgroup.us,7/6/21,26.2073,-97.6858
Bella Villa Assisted Living,104513,ASSISTED LIVING,Cameron,TYPE B,147973,7385 OLD MILITARY RD,Villa Nueva,TX,78520,(956) 455-0501,8,KJDO HEALTHCARE INC,FOR-PROFIT CORPORATION,npgracia@aol.com,7/6/21,25.9763,-97.5927
Southern Wind Manor,102361,ASSISTED LIVING,Camp,TYPE B,148433,618 QUITMAN ST,Pittsburg,TX,75686,(903) 855-1555,50,SOUTHERN WIND MANOR,SOLE PROPRIETOR,southernwindmanor@gmail.com,7/6/21,33.0003,-94.9785
Wesley House,30365,ASSISTED LIVING,Cass,TYPE B,150014,1102 S WILLIAMS,Atlanta,TX,75551,(903) 796-6300,50,WESLEY HOUSE ATLANTA LLC,LIMITED LIABILITY COMPANY (LLC),lhill@wesleyseniorliving.com,7/6/21,33.1043,-94.1657
Angelina House,990,ASSISTED LIVING,Cherokee,TYPE B,149562,211 PHILIP ST,Jacksonville,TX,75766,(903) 589-1105,48,VERITAS SENIOR LIVING LLC,LIMITED LIABILITY COMPANY (LLC),clanders@veritashcg.com,7/6/21,31.964,-95.2504
Cp Jacksonville Tx Llc,110417,ASSISTED LIVING,Cherokee,TYPE B,308022,2120 E. RUSK STREET,Jacksonville,TX,75766,,30,CP JACKSONVILLE TX LLC,LIMITED LIABILITY COMPANY (LLC),rusty.prentice@cphomes.net,7/6/21,31.9703,-95.2283
The Trinity Assisted Living Of Jacksonville,104948,ASSISTED LIVING,Cherokee,TYPE B,145642,131 ZIMMERMAN ST,Jacksonville,TX,75766,(903) 284-6135,16,JACKSONVILLE I ENTERPRISES LLC,LIMITED LIABILITY COMPANY (LLC),linda_huggins@csnhc.com,7/6/21,31.9584,-95.2739
Cottage Village,982,ASSISTED LIVING,Childress,TYPE B,150203,204 FIFTH ST N E,Childress,TX,79201,(940) 937-2045,16,"COTTAGE VILLAGE LIVING, LLC",LIMITED LIABILITY COMPANY (LLC),davekarnes@att.net,7/6/21,34.4212,-100.2023
Avalon Memory Care,110370,ASSISTED LIVING,Collin,TYPE B,307932,750 N. GREENVILLE AVE,Allen,TX,75002,(214) 752-7050,27,AVALON DEMENTIA CARE MANAGEMENT  LLC,LIMITED LIABILITY COMPANY (LLC),licensure@avalonmemorycare.com,7/6/21,33.1121,-96.6534
"Bertha'S Care Home, Llc",106236,ASSISTED LIVING,Collin,TYPE B,148789,713 ROLLING HILLS DR,Allen,TX,75002,(972) 521-2014,6,BERTHA'S CARE HOME  LLC,LIMITED LIABILITY COMPANY (LLC),jep@graciouscarehome.com,7/6/21,33.0761,-96.6636
Christian Care Senior Living Community  Allen,106750,ASSISTED LIVING,Collin,TYPE B,146461,560 PRESTIGE CIRCLE,Allen,TX,75002,(972) 686-2460,88,CHRISTIAN CARE CENTERS INC,NONPROFIT ORGANIZATION,rmbraley@cccinc.net,7/6/21,33.0905,-96.6651
"Gracious Fountain Senior Living, Llc",106778,ASSISTED LIVING,Collin,TYPE B,308136,307 N FOUNTAIN GATE DR.,Allen,TX,75002,(214) 785-7085,6,"GRACIOUS FOUNTAIN SENIOR LIVING, LLC",LIMITED LIABILITY COMPANY (LLC),susan@graciouscarehome.com,7/6/21,33.1034,-96.6459
Grand Brook Memory Care Of Allen,106840,ASSISTED LIVING,Collin,TYPE B,148236,965 JUNCTION DR,Allen,TX,75013,(469) 331-8200,36,ALLEN MEMORY CARE  LLC,LIMITED LIABILITY COMPANY (LLC),jlopez@constantcare.com,7/6/21,33.1124,-96.6788
Groom Senior Living Inc,104406,ASSISTED LIVING,Collin,TYPE B,146171,304 WILLOW CREEK CIR,Allen,TX,75002,(214) 383-9077,14,GROOM SENIOR LIVING INC,LIMITED LIABILITY COMPANY (LLC),info@groomseniorliving.com,7/6/21,33.0941,-96.6675
Heritage House Of Allen,104699,ASSISTED LIVING,Collin,TYPE B,149480,1521 YORKSHIRE DR,Allen,TX,75002,(214) 785-7695,8,"THE HERITAGE HOUSE OF PLANO, LLC",LIMITED LIABILITY COMPANY (LLC),cindy@theheritagehouses.com,7/6/21,33.0845,-96.6293
Mustang Creek Estates Allen House 1,102185,ASSISTED LIVING,Collin,TYPE B,147382,710 CREEK VALLEY COURT,Allen,TX,75002,(972) 359-0200,13,MCE OP CO  LLC,LIMITED LIABILITY COMPANY (LLC),renee@mustangcreekestates.com,7/6/21,33.091,-96.6467
Mustang Creek Estates Allen House 2,102183,ASSISTED LIVING,Collin,TYPE A,147267,712 CREEK VALLEY COURT,Allen,TX,75002,(214) 396-5828,13,MCE OP CO  LLC,LIMITED LIABILITY COMPANY (LLC),renee@mustangcreekestates.com,7/6/21,33.0908,-96.647
Mustang Creek Estates Allen House 3,103493,ASSISTED LIVING,Collin,TYPE B,147045,714 CREEK VALLEY CT,Allen,TX,75002,(214) 396-5828,13,MCE OP CO  LLC,LIMITED LIABILITY COMPANY (LLC),renee@mustangcreekestates.com,7/6/21,33.0909,-96.6473
Mustang Creek Estates Allen House 4,103492,ASSISTED LIVING,Collin,TYPE B,147887,716 CREEK VALLEY CT,Allen,TX,75002,(214) 396-5828,13,MCE OP CO  LLC,LIMITED LIABILITY COMPANY (LLC),renee@mustangcreekestates.com,7/6/21,33.0906,-96.6472
Mustang Creek Estates Allen House 5 And 6,102182,ASSISTED LIVING,Collin,TYPE A,147269,720 CREEK VALLEY COURT,Allen,TX,75002,(214) 396-5828,26,MCE OP CO  LLC,LIMITED LIABILITY COMPANY (LLC),renee@mustangcreekestates.com,7/6/21,33.0904,-96.6465
Sparks Loving Care Home,30385,ASSISTED LIVING,Collin,TYPE A,307398,999 W FOREST GROVE RD,Allen,TX,75002,(972) 562-7172,15,MICHAEL SPARKS,,sparkslovingcare@gmail.com,7/6/21,33.1174,-96.5904
The Heritage At Twin Creeks,106459,ASSISTED LIVING,Collin,TYPE B,307824,920 STOCKTON DRIVE,Allen,TX,75013,214 5099005,113,"920 STOCKTON DRIVE, LP",LIMITED PARTNERSHIP,josh@mcfarlin-group.com,7/6/21,33.1212,-96.6751
The Mulberry House Iii,105828,ASSISTED LIVING,Collin,TYPE B,145479,1056 BALMORHEA DR,Allen,TX,75013,(469) 640-1555,6,MCKINNEY ASSISTED LIVING INC,FOR-PROFIT CORPORATION,brandon@mckinneyassistedliving.com,7/6/21,33.1236,-96.6924
Vitality Court Texas Star,106350,ASSISTED LIVING,Collin,TYPE B,147912,650 S GREENVILLE AVENUE,Allen,TX,75002,(972) 678-5400,111,VSL ALLEN  LLC,LIMITED LIABILITY COMPANY (LLC),ed@texasstaral.com,7/6/21,33.0931,-96.6687
Brinlee Creek Ranch,717,ASSISTED LIVING,Collin,TYPE B,143912,3325 PATE WAY BUILDING I,Anna,TX,75409,(972) 838-2602,16,"PATE REHABILITATION ENDEAVORS, INC",FOR-PROFIT CORPORATION,sspencer@paterehab.com,7/6/21,33.316,-96.4886
Brinlee Creek Ranch  Hilltop House,102515,ASSISTED LIVING,Collin,TYPE B,144832,3325 PATE WAYBLDG E,Anna,TX,75409,(972) 838-2602,16,"PATE REHABILITATION ENDEAVORS, INC",FOR-PROFIT CORPORATION,sspencer@paterehab.com,7/6/21,33.3487,-96.5355
Brinlee Creek Ranch West Campus,30281,ASSISTED LIVING,Collin,TYPE B,144424,3325 PATE WAY BLDG H,Anna,TX,75409,(972) 838-2602,16,"PATE REHABILITATION ENDEAVORS, INC",FOR-PROFIT CORPORATION,sspencer@paterehab.com,7/6/21,33.316,-96.4886
B & Y Care Homes,105439,ASSISTED LIVING,Collin,TYPE B,148754,4311 BRETTON BAY LN,Dallas,TX,75287,(972) 349-9251,8,HOPE LIVING GROUP HOME  LLC,SOLE PROPRIETOR,brettonbayhome@gmail.com,7/6/21,32.9915,-96.8353
Continuing Care At Highland Springs,105429,ASSISTED LIVING,Collin,TYPE B,146375,7910 FRANKFORD ROAD,Dallas,TX,75252,(972) 656-3500,88,HIGHLAND SPRINGS INC,NONPROFIT ORGANIZATION,chris.emmett@erickson.com,7/6/21,32.9974,-96.7649
Jackson'S Place,107006,ASSISTED LIVING,Collin,TYPE B,307943,4014 VILLA GROVE DRIVE,Dallas,TX,75287,(972) 248-0757,6,EGANZA INCORPORATED,FOR-PROFIT CORPORATION,eganza541@gmail.com,7/6/21,32.9903,-96.8422
Bethesda Gardens Frisco,103845,ASSISTED LIVING,Collin,TYPE B,149841,10588 LEGACY DR,Frisco,TX,75034,(469) 362-8545,100,BSLC FRISCO LLC,LIMITED LIABILITY COMPANY,frinfo@ba.org,7/6/21,33.166,-96.8472
Huntleigh Care Homes  Wimberley,104607,ASSISTED LIVING,Collin,TYPE B,144941,13305 WIMBERLEY DRIVE,Frisco,TX,75035,(214) 415-8943,7,"HUNTLEIGH CARE HOMES, LLC",LIMITED LIABILITY COMPANY (LLC),hunt@huntleighcarehomes.com,7/6/21,33.1878,-96.7775
Huntleigh Care Homes Llc,105384,ASSISTED LIVING,Collin,TYPE B,146989,6974 WAVERLY LANE,Frisco,TX,75035,(972) 455-8280,8,"HUNTLEIGH CARE HOMES, LLC",LIMITED LIABILITY COMPANY (LLC),leigh@huntleighcarehomes.com,7/6/21,33.136,-96.7755
La Fontaine Memory Care,106466,ASSISTED LIVING,Collin,TYPE B,150012,11777 LEBANON ROAD,Frisco,TX,75035,(214) 618-9519,40,GO OPERATIONS 1  LLC,LIMITED LIABILITY COMPANY (LLC),am@csrliving.com,7/6/21,33.1155,-96.776
Parsons House Frisco,100201,ASSISTED LIVING,Collin,TYPE B,147725,5850 OHIO DRIVE,Frisco,TX,75035,(972) 668-4100,100,FRISCO SENIOR HOUSING  LP,LIMITED PARTNERSHIP,rpayne@parsonshousefrisco.com,7/6/21,33.1272,-96.7921
Saddle Brook Memory Care Community,106148,ASSISTED LIVING,Collin,TYPE B,147931,9966 LEGACY DRIVE,Frisco,TX,75034,(214) 494-4264,65,"FRISCO MEMORY CARE, LLC",LIMITED LIABILITY COMPANY (LLC),saddlebrooked@koelschsenior.com,7/6/21,33.1608,-96.8481
Sunrise Of Frisco,104019,ASSISTED LIVING,Collin,TYPE B,144925,2680 LEGACY DRIVE,Frisco,TX,75034,(469) 362-1313,104,MS FRISCO SH LLC,LIMITED LIABILITY COMPANY (LLC),dbaker@ventasreit.com,7/6/21,33.1013,-96.8406
The Cottages At Chapel Creek,106486,ASSISTED LIVING,Collin,TYPE B,149564,8111 WADE BOULEVARD,Frisco,TX,75034,(972) 668-5200,90,THE COTTAGES AT CHAPEL CREEK  LLC,LIMITED LIABILITY COMPANY (LLC),tquinn@alzcottages.com,7/6/21,33.1286,-96.8131
Windhaven Senior Living Ltd,110210,ASSISTED LIVING,Collin,TYPE B,307464,2828 C NATURE WAY,Frisco,TX,75033,(972) 248-0260,16,WINDHAVEN SENIOR LIVING LTD,LIMITED PARTNERSHIP,david@windhavenseniorliving.com,7/6/21,33.18,-96.8639
Alpha & Omega Residential Care Home,105635,ASSISTED LIVING,Collin,TYPE B,149262,9604 LOG RUN CT,Mckinney,TX,75072,(972) 346-2280,6,ALPHA & OMEGA RESIDENTIAL CARE HOME LLC,LIMITED LIABILITY COMPANY (LLC),aoresidentialcare@gmail.com,7/6/21,33.1914,-96.7393
Anthology Of Stonebridge Ranch,105884,ASSISTED LIVING,Collin,TYPE B,149590,3300 S STONEBRIDGE DR,Mckinney,TX,75070,(972) 804-4122,132,CA SENIOR MCKINNEY OPERATOR  LLC,LIMITED LIABILITY COMPANY (LLC),villagestonebridgeed@villagestonebridge.com,7/6/21,33.1731,-96.7244
Avalon Memory Care,107087,ASSISTED LIVING,Collin,TYPE B,149303,5401 A MCKINNEY RANCH,Mckinney,TX,75070,(214) 752-7050,30,AVALON DEMENTIA CARE MANAGEMENT  LLC,LIMITED LIABILITY COMPANY (LLC),licensure@avalonmemorycare.com,7/6/21,33.159,-96.6862
Avalon Memory Care,103912,ASSISTED LIVING,Collin,TYPE B,148882,1801 MEADOW RANCH RD,Mckinney,TX,75071,(214) 752-7050,16,AVALON DEMENTIA CARE MANAGEMENT  LLC,LIMITED LIABILITY COMPANY (LLC),licensure@avalonmemorycare.com,7/6/21,33.2136,-96.6781
Brookdale Stonebridge Ranch,30021,ASSISTED LIVING,Collin,TYPE B,148739,1650 S STONEBRIDGE DR,Mckinney,TX,75070,(972) 529-1420,136,ESC IV LP,LIMITED PARTNERSHIP,greg.meador@brookdale.com,7/6/21,33.1865,-96.7129
Cariad At North Brook,110415,ASSISTED LIVING,Collin,TYPE B,308020,2301 N BROOK,Mckinney,TX,75069,(972) 542-6006,49,"MCKINNEY OP, LLC",LIMITED LIABILITY COMPANY (LLC),info@cariadnorthbrook.com,7/6/21,33.1895,-96.6438
Castleridge Senior Living Llc,106597,ASSISTED LIVING,Collin,TYPE B,149368,5100 SPICEWOOD DRIVE,Mckinney,TX,75070,(214) 548-4708,10,"CASTLERIDGE SENIOR LIVING, LLC",LIMITED LIABILITY COMPANY (LLC),castleridgeseniorliving@gmail.com,7/6/21,33.1735,-96.6856
Cornerstone Ministries Inc,102733,ASSISTED LIVING,Collin,TYPE A,148082,3933 CR 317,Mckinney,TX,75069,(469) 424-1887,7,CORNERSTONE MINISTRIES  INC,NONPROFIT ORGANIZATION,info@cornerstone-ranch.com,7/6/21,33.1551,-96.5794
Grand Brook Memory Care Of Mckinney,102401,ASSISTED LIVING,Collin,TYPE B,149030,175 PLATEAU DR,Mckinney,TX,75069,(972) 542-0606,48,MCKINNEY OPCO LLC,LIMITED LIABILITY COMPANY (LLC),jlopez@constantcare.com,7/6/21,33.1635,-96.6287
Greenfield Residential Care Homes Llc,105058,ASSISTED LIVING,Collin,TYPE B,144669,3401 LOS ALAMOS LANE,Mckinney,TX,75070,(972) 540-1274,6,GREENFIELD RESIDENTIAL CARE HOMES LLC,LIMITED LIABILITY COMPANY (LLC),buhle@nhresidentialcare.com,7/6/21,33.1642,-96.6674
Harborchase Of Mckinney,106764,ASSISTED LIVING,Collin,TYPE B,147764,265 PLATEAU DRIVE,Mckinney,TX,75069,(469) 712-7660,73,HARBOR MCKINNEY OPERATING  LLC,LIMITED LIABILITY COMPANY (LLC),aclark@hraonline.net,7/6/21,33.1634,-96.6274
Hidden Springs Senior Living,110376,ASSISTED LIVING,Collin,TYPE B,307952,6421 MCKINNEY RANCH PARKWAY,Mckinney,TX,75070,,78,HIDDEN SPRING OPCO LTD,LIMITED PARTNERSHIP,lstanisha@12oaks.net,7/6/21,33.1582,-96.6965
Legend Assisted Living And Memory Care Of Mckinney,107188,ASSISTED LIVING,Collin,TYPE B,307004,220 S. CRUTCHER CROSSING,Mckinney,TX,75070,(972) 540-5100,101,DFW ALF 2 LLC,LIMITED LIABILITY COMPANY (LLC),tdads@legendseniorliving.com,7/6/21,33.1978,-96.6869
North Brook Place,645,ASSISTED LIVING,Collin,TYPE A,307417,2301 N BROOK,Mckinney,TX,75069,(972) 542-6006,55,"MCKINNEY OP, LLC",LIMITED LIABILITY COMPANY (LLC),northbrook@elmingtonsenior.com,7/6/21,33.1895,-96.6438
Oxford Grand At Mckinney,106702,ASSISTED LIVING,Collin,TYPE B,148897,2851 ORCHID DR.,Mckinney,TX,75070,(469) 714-0806,95,"ASHR MCKINNEY, LLC",LIMITED LIABILITY COMPANY (LLC),shawkins@oxfordseniorliving.com,7/6/21,33.1693,-96.6692
Randy Lee Senior Living,104660,ASSISTED LIVING,Collin,TYPE B,307229,308 RANDY LEE LANE,Mckinney,TX,75071,(214) 382-8163,8,JANE JEBICHII,OTHER,randyleeseniorliving@yahoo.com,7/6/21,33.2031,-96.6433
Redbud Place,659,ASSISTED LIVING,Collin,TYPE B,147917,101 W WILSON CREEK PKWY,Mckinney,TX,75069,(972) 562-9698,48,REDBUD AID OPCO LLC,LIMITED LIABILITY COMPANY (LLC),legalhelp@enlivant.com,7/6/21,33.1846,-96.6194
Serein Residential Care Home,105339,ASSISTED LIVING,Collin,TYPE B,146921,4401 CITABRIA DRIVE,Mckinney,TX,75070,(214) 592-8454,6,SEREIN RESIDENTIAL CARE HOME  LLC,LIMITED LIABILITY COMPANY (LLC),justera70@gmail.com,7/6/21,33.1862,-96.6741
Stonefield Assisted Living And Memory Care,104253,ASSISTED LIVING,Collin,TYPE B,308222,2701 ALMA ROAD,Mckinney,TX,75070,214 4911710,90,"WELLTOWER, INC",FOR-PROFIT CORPORATION,administrator@stonefieldseniorliving.com,7/6/21,33.1764,-96.7148
Teresa'S House,110394,ASSISTED LIVING,Collin,TYPE B,307989,6511 COLLIN-MCKINNEY PARKWAY,Mckinney,TX,75070,,16,TERESA'S HOUSECRAIG RANCH LLC,LIMITED LIABILITY COMPANY (LLC),teresaw@teresashouse.com,7/6/21,33.1445,-96.7031
Teresa'S House,110373,ASSISTED LIVING,Collin,TYPE B,307944,6521 COLLIN-MCKINNEY PARKWAY,Mckinney,TX,75070,,16,TERESA'S HOUSECRAIG RANCH LLC,LIMITED LIABILITY COMPANY (LLC),teresaw@teresashouse.com,7/6/21,33.1445,-96.7032
Teresa'S House,110372,ASSISTED LIVING,Collin,TYPE B,307942,6531 COLLIN-MCKINNEY PARKWAY,Mckinney,TX,75070,,16,TERESA'S HOUSECRAIG RANCH LLC,LIMITED LIABILITY COMPANY (LLC),teresaw@teresashouse.com,7/6/21,33.1445,-96.7033
The Ivy Of Mckinney,104787,ASSISTED LIVING,Collin,TYPE A,307540,3392 MEDICAL CENTER DRIVE,Mckinney,TX,75069,972 3518888,90,"3392 MEDICAL CENTER DRIVE, LP",LIMITED PARTNERSHIP,info@mcfarlin-group.com,7/6/21,33.1691,-96.6361
The Ivy Of Mckinney,104759,ASSISTED LIVING,Collin,TYPE B,307645,3352 MEDICAL CENTER DRIVE,Mckinney,TX,75069,972 3518888,30,"3392 MEDICAL CENTER DRIVE, LP",LIMITED PARTNERSHIP,info@mcfarlin-group.com,7/6/21,33.1695,-96.6368
The Mulberry House #1,30148,ASSISTED LIVING,Collin,TYPE B,146977,2620 SAINT MICHELLE,Mckinney,TX,75070,(214) 592-8593,6,MCKINNEY ASSISTED LIVING INC,FOR-PROFIT CORPORATION,brandon@mckinneyassistedliving.com,7/6/21,33.168,-96.6595
The Mulberry House #2,101626,ASSISTED LIVING,Collin,TYPE A,147004,3216 BRENTWOOD DR,Mckinney,TX,75070,(214) 592-8593,6,MCKINNEY ASSISTED LIVING INC,FOR-PROFIT CORPORATION,brandon@mckinneyassistedliving.com,7/6/21,33.1645,-96.6662
Villagio Of Mckinney,30286,ASSISTED LIVING,Collin,TYPE B,148438,1601 W ELDORADO PKWY,Mckinney,TX,75069,(972) 569-8660,72,SELECT OPERATIONS OF MCKINNEY LLC,LIMITED LIABILITY COMPANY (LLC),elindsey@summitsrliving.com,7/6/21,33.1735,-96.6354
Lynridge Assisted Living,105295,ASSISTED LIVING,Collin,TYPE B,307482,304 WEST FM 544,Murphy,TX,75094,(972) 544-7654,90,"WELLTOWER TCG RIDEA TENANT, LLC",LIMITED LIABILITY COMPANY (LLC),bmccaleb@sagora.com,7/6/21,33.0101,-96.6187
The Heritage House Of Murphy,106089,ASSISTED LIVING,Collin,TYPE B,147437,612 MAIZE DR,Murphy,TX,75094,(469) 250-1430,6,THE HERITAGE HOUSE OF PLANO  LLC,LIMITED LIABILITY COMPANY (LLC),cindy@theheritagehouses.com,7/6/21,33.0225,-96.5992
Allegro Assisted Living Services Of Texas Llc,106449,ASSISTED LIVING,Collin,TYPE B,144934,3417 CROSS BEND RD,Plano,TX,75023,(214) 542-8527,5,ALLEGRO ASSISTED LIVING SERVICES OF TEXAS LLC,LIMITED LIABILITY COMPANY (LLC),allegroal@verizon.net,7/6/21,33.0494,-96.7602
Anthology Of Plano,106352,ASSISTED LIVING,Collin,TYPE B,148867,3670 MAPLESHADE LANE,Plano,TX,75075,(972) 964-8444,112,CA SENIOR PLANO OPERATOR  LLC,LIMITED LIABILITY COMPANY (LLC),mapleshadeed@islllc.com,7/6/21,33.0025,-96.76
Arbor Hills Memory Care Community,105554,ASSISTED LIVING,Collin,TYPE B,148812,2625 W. PLANO PARKWAY,Plano,TX,75075,(972) 509-8905,69,PLANO ARBOR HILLS  LLC,LIMITED LIABILITY COMPANY (LLC),arborhillsed@koelschsenior.com,7/6/21,33.0085,-96.7419
Arms Of Hope Residential Care Home,107282,ASSISTED LIVING,Collin,TYPE B,307366,2517 DOWNING DR,Plano,TX,75023,(469) 298-2840,5,ARMS OF HOPE LLC,LIMITED LIABILITY COMPANY (LLC),info@armsofhoperesidentialhome.com,7/6/21,33.0444,-96.7416
Assisted Concepts Llc,30338,ASSISTED LIVING,Collin,TYPE A,147489,7109 FALCON DR,Plano,TX,75025,(972) 618-9603,8,ASSISTED CONCEPTS LLC,LIMITED LIABILITY COMPANY (LLC),p.farris@assistedconcepts.com,7/6/21,33.0736,-96.7474
Avalon Memory Care  Sparrows Point,30015,ASSISTED LIVING,Collin,TYPE B,149313,5013 SPARROWS PT,Plano,TX,75023,(214) 752-7050,8,AVALON DEMENTIA CARE MANAGEMENT  LLC,LIMITED LIABILITY COMPANY (LLC),licensure@avalonmemorycare.com,7/6/21,33.0542,-96.7329
Avendelle Assisted Living Merksem,30217,ASSISTED LIVING,Collin,TYPE B,148769,2104 MERKSEM CT,Plano,TX,75025,(972) 943-5999,6,AVENDELLE ASSISTED LIVING DFW LLC,LIMITED LIABILITY COMPANY (LLC),terry.hubbard@avendelledfw.com,7/6/21,33.0806,-96.7353
Bader House Of Plano,106731,ASSISTED LIVING,Collin,TYPE B,147141,1667 W PLANO PKWY,Plano,TX,75075,(972) 881-1826,26,PITTMAN CREEK MEMORY CARE  LTD,LIMITED PARTNERSHIP,kgreenwood@uncommoncare.com,7/6/21,33.0081,-96.7213
Brookdale Collin Oaks,356,ASSISTED LIVING,Collin,TYPE B,145624,4045 W 15TH ST,Plano,TX,75093,(972) 519-0480,116,"ESCNGH, LP",LIMITED PARTNERSHIP,cstrasburg@brookdale.com,7/6/21,33.0189,-96.7699
Brookdale Creekside,30404,ASSISTED LIVING,Collin,TYPE B,146711,2000 W SPRING CREEK PKWY,Plano,TX,75023,(972) 312-9993,56,ESC IV LP,LIMITED PARTNERSHIP,rebecca.covert@brookdale.com,7/6/21,33.0578,-96.7302
Brookdale Spring Creek Gardens,30405,ASSISTED LIVING,Collin,TYPE B,146630,6410 OLD ORCHARD DR,Plano,TX,75023,(972) 208-9865,72,"SH OPCO SPRING CREEK GARDENS, LLC",LIMITED LIABILITY COMPANY,jroth@brookdale.com,7/6/21,33.0598,-96.7364
Cariad At Village Creek,110388,ASSISTED LIVING,Collin,TYPE B,307978,5217 VILLAGE CREEK DRIVE,Plano,TX,75093,(972) 735-0306,65,"PLANO OP, LLC",LIMITED LIABILITY COMPANY (LLC),info@cariadvillagecreek.com,7/6/21,33.015,-96.8052
Collin Creek Assisted Living Center Inc,30165,ASSISTED LIVING,Collin,TYPE B,149733,6400 CHEYENNE TR,Plano,TX,75023,(972) 769-1109,70,"COLLIN CREEK ASSISTED LIVING CENTER, INC",NONPROFIT ORGANIZATION,cvaillant@dayspringal.org,7/6/21,33.0584,-96.7652
Four Seasons Senior Living Ii,105153,ASSISTED LIVING,Collin,TYPE B,146130,9620 BULL CREEK,Plano,TX,75023,(972) 422-1562,5,FOUR SEASONS SENIOR LIVING II LLC,LIMITED LIABILITY COMPANY (LLC),mike@4seasonsseniorliving.com,7/6/21,33.1094,-96.7512
Groom Senior Care Homes Inc,103687,ASSISTED LIVING,Collin,TYPE B,131705,1525 AYLESBURY,Plano,TX,75075,(972) 398-2920,9,GROOM SENIOR CARE HOMES INC,FOR-PROFIT CORPORATION,,7/6/21,33.0281,-96.7244
Harborchase Of Plano,106589,ASSISTED LIVING,Collin,TYPE B,308137,5340 TOWNE SQUARE DRIVE,Plano,TX,75024,(972) 362-1110,148,"SILVERSTONE HARBORCHASE PLANO OPERATING, LLC",LIMITED LIABILITY COMPANY (LLC),planoed@harborchase.com,7/6/21,33.0902,-96.8077
Locardia Home Care Living Llc,106251,ASSISTED LIVING,Collin,TYPE B,148177,2609 WEBSTER DR,Plano,TX,75075,(972) 964-8127,5,LOCARDIA HOME CARE LIVING LLC,LIMITED LIABILITY COMPANY (LLC),chadukacaltus@yahoo.com,7/6/21,33.0262,-96.7434
Locardia Home Care Living Llc,110469,ASSISTED LIVING,Collin,TYPE B,308113,1504 SACRAMENTO TERRACE,Plano,TX,75075,(214) 299-9819,5,LOCARDIA HOME CARE LIVING LLC,LIMITED LIABILITY COMPANY (LLC),locardiacarehome1@gmail.com,7/6/21,33.0248,-96.7219
Mission Ridge Residential Care,103405,ASSISTED LIVING,Collin,TYPE B,146397,3320 CANONCITA LN,Plano,TX,75023,(972) 985-6050,8,"JIUNY ENTERPRISES, LLC",LIMITED LIABILITY COMPANY (LLC),jcmartin@missionridgeresidential.com,7/6/21,33.0427,-96.7594
More Than Home Residential Care,102845,ASSISTED LIVING,Collin,TYPE B,148600,3109 PHAETON CT,Plano,TX,75023,(972) 849-4529,7,EUSTINA CHOTO,LIMITED LIABILITY COMPANY (LLC),morethanhome@verizon.net,7/6/21,33.0542,-96.7538
North Texas Personal Care Homes Inc,103239,ASSISTED LIVING,Collin,TYPE B,147999,2916 CHALFONT,Plano,TX,75023,(469) 360-4493,6,NORTH TEXAS PERSONAL CARE HOMES INC,FOR-PROFIT CORPORATION,ntpch@sbcglobal.net,7/6/21,33.0687,-96.7488
Prestonwood Court,102673,ASSISTED LIVING,Collin,TYPE B,307795,7001 W PLANO PARKWAY,Plano,TX,75093,(469) 521-7638,132,PRESTONWOOD SENIOR CARE LLC,LIMITED LIABILITY COMPANY (LLC),bill.snow@bridgeig.com,7/6/21,33.0341,-96.8517
R L G Dignified Living Of Plano Llc,106591,ASSISTED LIVING,Collin,TYPE B,146820,2816 TALLAHASSEE COURT,Plano,TX,75074,(4697861573972) 849-5667,5,RLG DIGNIFIED LIVING OF PLANO LLC,LIMITED LIABILITY COMPANY (LLC),rlgdignifiedliving@gmail.com,7/6/21,33.0678,-96.6754
Silver Leaf Assisted Living,105204,ASSISTED LIVING,Collin,TYPE B,308159,3200 APPALACHIAN WAY,Plano,TX,75075,(914) 643-6335,5,"SILVER LEAF ASSISTED LIVING, LLC",LIMITED LIABILITY COMPANY (LLC),dan@lakepointseniors.com,7/6/21,33.0345,-96.7549
"Silver Leaf Assisted Living, Llc",107073,ASSISTED LIVING,Collin,TYPE B,308178,3204 APPALACHIAN WAY,Plano,TX,75075,(914) 643-6335,5,"SILVER LEAF ASSISTED LIVING, LLC",LIMITED LIABILITY COMPANY (LLC),dan@lakepointseniors.com,7/6/21,33.0345,-96.7552
"Silver Leaf Assisted Living, Llc",103444,ASSISTED LIVING,Collin,TYPE B,308240,3400 REMINGTON DRIVE,Plano,TX,75023,(914) 643-6335,6,SILVER LEAF ASSISTED LIVING LLC,LIMITED LIABILITY COMPANY (LLC),dan@lakepointseniors.com,7/6/21,33.0509,-96.7598
"Silver Leaf Assisted Living, Llc",103360,ASSISTED LIVING,Collin,TYPE B,308289,3453 HEARST CASTLE WAY,Plano,TX,75025,(914) 643-6335,8,"SILVER LEAF ASSISTED LIVING, LLC",LIMITED LIABILITY COMPANY (LLC),dan@lakepointseniors.com,7/6/21,33.0804,-96.7613
Silvermark Assisted Living Plano,799,ASSISTED LIVING,Collin,TYPE B,150206,5521 VILLAGE CREEK DR,Plano,TX,75093,866 3046801,51,PLANO SCAL LLC,LIMITED LIABILITY COMPANY (LLC),tesh@silvercaremanagement.com,7/6/21,33.0144,-96.8125
"Sunny Oak Assisted Living & Memory Care Home, Llc",110287,ASSISTED LIVING,Collin,TYPE B,307682,2625 PIN OAK LANE,Plano,TX,75075,(972) 596-6333,5,"SUNNY OAK ASSISTED LIVING & MEMORY CARE HOME, LLC",LIMITED LIABILITY COMPANY (LLC),lixinc@aol.com,7/6/21,33.0291,-96.7429
Sunrise Senior Living Of Plano,102620,ASSISTED LIVING,Collin,TYPE B,149544,4800 W PARKER RD,Plano,TX,75093,(972) 985-9181,123,HCRI SUN III TENANT  LP,LIMITED PARTNERSHIP,plano.ed@sunriseseniorliving.com,7/6/21,33.0414,-96.7917
The Auberge At Plano  A Memory Care Community,105952,ASSISTED LIVING,Collin,TYPE B,307681,3690 MAPLESHADE LANE,Plano,TX,75075,972 9850220,90,"WELLTOWER, INC",FOR-PROFIT CORPORATION,administrator@aubergeplano.com,7/6/21,33.0025,-96.7614
The Garden View Home,102496,ASSISTED LIVING,Collin,TYPE B,147250,6500 GENESEO CIR,Plano,TX,75023,(972) 208-2859,7,THE GARDENS RESIDENTIAL CARE HOMES INC,FOR-PROFIT CORPORATION,sbrodgers@sbcglobal.net,7/6/21,33.0614,-96.7352
The Healthcare Resort Of Plano,106269,ASSISTED LIVING,Collin,TYPE B,144949,3325 W PLANO PKWY,Plano,TX,75075,(972) 596-1260,30,OAK POINT HEALTHCARE INC,FOR-PROFIT CORPORATION,sburnam@ensignservices.net,7/6/21,33.0111,-96.7559
"The Heritage House Of Plano, Llc",110320,ASSISTED LIVING,Collin,TYPE B,307785,7517 WHITE CASTLE LANE,Plano,TX,75025,(214) 632-2382,8,"THE HERITAGE HOUSE OF PLANO, LLC",LIMITED LIABILITY COMPANY (LLC),cindy@theheritagehouses.com,7/6/21,33.0791,-96.7638
"The Legacy Willow Bend, Inc",103432,ASSISTED LIVING,Collin,TYPE B,147866,6101 OHIO DR STE 600,Plano,TX,75024,(972) 468-6160,72,"THE LEGACY WILLOW BEND, INC",NONPROFIT ORGANIZATION,tpurchal@thelegacysc.org,7/6/21,33.0578,-96.7923
The Waterford At Plano Assisted Living Community,100348,ASSISTED LIVING,Collin,TYPE B,145795,3401 PREMIER DR,Plano,TX,75023,(972) 423-7400,57,TRIAD SENIOR LIVING II LP,LIMITED PARTNERSHIP,melissa.dyer@capitalseniorliving.net,7/6/21,33.0453,-96.7061
Vana Capital Group Llc Dba Alma Residential Care,110222,ASSISTED LIVING,Collin,TYPE B,307498,1117 BASS DR.,Plano,TX,75025,(469) 573-5155,5,VANA CAPITAL GROUP LLC,LIMITED LIABILITY COMPANY (LLC),info@almaresidential.com,7/6/21,33.0823,-96.7136
Village Creek Place,30011,ASSISTED LIVING,Collin,TYPE A,307404,5217 VILLAGE CREEK DR.,Plano,TX,75093,(972) 735-0306,66,"PLANO OP, LLC",LIMITED LIABILITY COMPANY (LLC),villagecreek@elmingtonsenior.com,7/6/21,33.015,-96.8052
Villagio Of Plano,100450,ASSISTED LIVING,Collin,TYPE B,143504,2129 BAYHILL DR,Plano,TX,75023,(972) 612-9336,32,SELECT OPERATIONS OF PLANO LLC,GENERAL PARTNERSHIP,elindsey@summitsliving.com,7/6/21,33.057,-96.7376
Wyndham Court Of Plano,100148,ASSISTED LIVING,Collin,TYPE B,307500,3000 MIDWAY ROAD,Plano,TX,75093,(972) 473-7400,88,"12 OAKS PLANO OPCO, LLC",LIMITED LIABILITY COMPANY (LLC),lstanisha@12oaks.net,7/6/21,33.0413,-96.8387
Villa Asuncion Independent And Assisted Living Center,30128,ASSISTED LIVING,Collin,TYPE B,148165,830 E PRINCETON BLVD,Princeton,TX,75407,(972) 734-8823,80,VILLA ASUNCION INDEPENDENT LIVING CTR LLC,LIMITED LIABILITY COMPANY,,7/6/21,33.1745,-96.4897
Villa Asuncion Independent And Assisted Living Center,104286,ASSISTED LIVING,Collin,TYPE A,144923,830 E PRINCETON DR,Princeton,TX,75407,(972) 734-8823,96,VILLA ASUNCION INDEPENDENT LIVING CTR LLC,LIMITED LIABILITY COMPANY,villaasuncion@aol.com,7/6/21,33.1745,-96.4897
Eckelberry'S Elderly Care Inc,103322,ASSISTED LIVING,Collin,TYPE B,150166,500 WILLOWVIEW DR,Prosper,TX,75078,(972) 347-3069,9,ECKELBERRY'S ELDERLY CARE INC,SOLE PROPRIETOR,eckelberrycare@gmail.com,7/6/21,33.2301,-96.7891
Tribute Senior Living,110146,ASSISTED LIVING,Collin,TYPE B,307314,190 N. PRESTON RD,Prosper,TX,75078,,84,ELDER LIVING OPERATIONS  PROSPER LP,LIMITED PARTNERSHIP,t.whittington@tributeseniorliving.com,7/6/21,33.2366,-96.7858
Dignified Living,30379,ASSISTED LIVING,Collin,TYPE B,148385,2206 BLUE CYPRESS DR,Richardson,TX,75082,(972) 907-1420,7,DIGNIFIED LIVING LLC,LIMITED LIABILITY COMPANY (LLC),dignifiedlivings@gmail.com,7/6/21,32.9897,-96.6815
"Dignified Living, Llc",102969,ASSISTED LIVING,Collin,TYPE B,145277,3304 BLUE BELL PLACE,Richardson,TX,75082,(972) 437-7827,7,DIGNIFIED LIVING LLC,LIMITED LIABILITY COMPANY (LLC),dignifiedlivings@gmail.com,7/6/21,32.9966,-96.6779
Heritage House Of Richardson,106573,ASSISTED LIVING,Collin,TYPE B,146858,2997 GREENFIELD DR,Richardson,TX,75082,(214) 632-2382,9,"THE HERITAGE HOUSE OF PLANO, LLC",LIMITED LIABILITY COMPANY (LLC),cindy@theheritagehouses.com,7/6/21,32.9884,-96.6486
The Family'S Choice,102886,ASSISTED LIVING,Collin,TYPE B,146462,2212 BLUEBONNET DR,Richardson,TX,75082,(214) 272-9755,8,ZJM ENTERPRISES INCORPORATED,FOR-PROFIT CORPORATION,thefamilyschoice@verizon.net,7/6/21,32.995,-96.6808
Mustang Creek Estates Sachse House D,107197,ASSISTED LIVING,Collin,TYPE B,150151,3900 RANCH ROAD,Sachse,TX,75048,(972) 342-3030,15,MCE IV OP CO LLC,LIMITED LIABILITY COMPANY (LLC),renee@mustangcreekestates.com,7/6/21,32.9877,-96.5863
"Joyful Assisted Living Home,Llc",110339,ASSISTED LIVING,Collin,TYPE B,307842,2931 GLENDALE DR,Wylie,TX,75098,(408) 963-8271,5,"JOYFUL ASSISTED LIVING HOME,LLC",LIMITED LIABILITY COMPANY (LLC),rozina@joyfulassistedlivinghome.com,7/6/21,33.0177,-96.4972
New Haven Assisted Living Of Wylie Llc,110104,ASSISTED LIVING,Collin,TYPE B,307156,"800 WEST BROWN ST., BLDG. A",Wylie,TX,75098,(214) 242-6982,16,NEW HAVEN ASSISTED LIVING OF WYLIE LLC,LIMITED LIABILITY COMPANY (LLC),justin@newhavenassistedliving.com,7/6/21,33.0189,-96.55
"New Haven Assisted Living Of Wylie, Llc",107240,ASSISTED LIVING,Collin,TYPE B,307152,800 W. BROWN ST.,Wylie,TX,75098,(214) 242-6982,16,NEW HAVEN ASSISTED LIVING OF WYLIE LLC,LIMITED LIABILITY COMPANY (LLC),julie@wellscg.com,7/6/21,33.0189,-96.55
Park View Manor Assisted Living,101264,ASSISTED LIVING,Collingsworth,TYPE B,149422,1016 16TH ST,Wellington,TX,79095,(806) 447-1186,16,COLLINGSWORTH COUNTY HOSPITAL DISTRICT,HOSPITAL DISTRICT/AUTHORITY,parkviewmanoral@gmail.com,7/6/21,34.8486,-100.2115
Columbus Oaks Healthcare Community,30222,ASSISTED LIVING,Colorado,TYPE B,147890,203 CHARTER ST,Columbus,TX,78934,(979) 732-2347,40,"DHC OPCOCOLUMBUS, LLC",LIMITED LIABILITY COMPANY (LLC),rachel@ahclallc.com,7/6/21,29.7161,-96.5362
Homestead Assisted Living,100620,ASSISTED LIVING,Colorado,TYPE B,146500,302 YOUENS DR,Weimar,TX,78962,(979) 725-8669,16,WEIMAR ASSISTED LIVING PARTNERS INC,FOR-PROFIT CORPORATION,louisnicholson@gcltc.com,7/6/21,29.694,-96.7858
Bulverde Assisted Living Inc,106854,ASSISTED LIVING,Comal,TYPE A,147629,1396 BULVERDE ROAD,Bulverde,TX,78163,(830) 980-2254,40,BULVERDE ASSISTED LIVING INC,OTHER,klmarkey@bulverdeassistedliving.com,7/6/21,29.7662,-98.4594
Garden Ridge Assisted Living,101536,ASSISTED LIVING,Comal,TYPE B,150264,9621 MEADOW RUE,Garden Ridge,TX,78266,(210) 744-2971,8,MARIA MAGDALENA LOPEZ,SOLE PROPRIETOR,gardenridgealf@yahoo.com,7/6/21,29.6281,-98.2946
Sodalis Elder Living Graceland,101917,ASSISTED LIVING,Comal,TYPE B,146608,19095 FM 2252,Garden Ridge,TX,78266,(210) 651-6377,50,SODALIS GRACELAND LLC,LIMITED LIABILITY COMPANY (LLC),sreny@sodalissenior.com,7/6/21,29.6203,-98.3069
Brookdale New Braunfels,380,ASSISTED LIVING,Comal,TYPE B,146216,2457 LOOP 337,New Braunfels,TX,78130,(830) 606-5300,60,"BROOKDALE SENIOR LIVING COMMUNITIES, INC",FOR-PROFIT CORPORATION,splunkettwuerger@brookdale.com,7/6/21,29.7213,-98.1472
Eden Home Inc,529,ASSISTED LIVING,Comal,TYPE B,149421,631 LAKEVIEW BLVD,New Braunfels,TX,78130,(830) 625-6291,64,EDEN HOME INC,NONPROFIT ORGANIZATION,sharmer@edenhill.org,7/6/21,29.7244,-98.1279
Elan Westpointe,106312,ASSISTED LIVING,Comal,TYPE B,307847,2140 INDEPENDENCE DRIVE,New Braunfels,TX,78132,830 4834900,128,"SABRA TRS HOLDINGS, LLC",LIMITED LIABILITY COMPANY (LLC),executive@elanwestpointe.com,7/6/21,29.7132,-98.1636
Gruene Senior Living Lp,103402,ASSISTED LIVING,Comal,TYPE B,147717,1820 E COMMON ST,New Braunfels,TX,78130,(830) 626-2111,84,GRUENE SENIOR LIVING LP,LIMITED PARTNERSHIP,debbie@grueneseniorliving.com,7/6/21,29.7289,-98.0948
Memory Care Of New Braunfels,106504,ASSISTED LIVING,Comal,TYPE B,149484,2022 TEXAS 46,New Braunfels,TX,78132,(830) 420-5882,64,"MCA NEW BRAUNFELS OPERATING COMPANY, LLC",LIMITED LIABILITY COMPANY (LLC),vedwards@memorycarenewbraunfels.com,7/6/21,29.7219,-98.1712
Oaktree Assisted Living,396,ASSISTED LIVING,Comal,TYPE B,146652,1750 HIGHWAY 46 WEST,New Braunfels,TX,78132,(830) 608-9222,60,BAYWIND VILLAGE INC,FOR-PROFIT CORPORATION,cwb1225@gmail.com,7/6/21,29.7182,-98.1608
Rio Terra Assisted Living,103926,ASSISTED LIVING,Comal,TYPE B,307484,2294 COMMON ST.,New Braunfels,TX,78130,(830) 221-4800,75,"WELLTOWER TCG RIDEA TENANT, LLC",LIMITED LIABILITY COMPANY (LLC),bmccaleb@sagora.com,7/6/21,29.7324,-98.0976
Sodalis Elder Living New Braunfels I,30347,ASSISTED LIVING,Comal,TYPE B,149211,550 ROCK ST BLDG B,New Braunfels,TX,78130,(830) 624-7702,16,ALZ CARE LLC,LIMITED LIABILITY COMPANY (LLC),erosales@sodalissenior.com,7/6/21,29.7256,-98.1221
Sodalis Elder Living New Braunfels Iii,103037,ASSISTED LIVING,Comal,TYPE B,149213,550 ROCK ST BLDG A,New Braunfels,TX,78130,(830) 624-7702,16,ALZ CARE LLC,LIMITED LIABILITY COMPANY (LLC),newbraunfels@sodalissenior.com,7/6/21,29.7256,-98.1221
The Village Of Garden Ridge,106447,ASSISTED LIVING,Comal,TYPE B,150282,9514 FM 1863,San Antonio,TX,78266,(210) 860-8964,16,THE VILLAGE OF GARDEN RIDGE ASSISTED LIVING  INC,FOR-PROFIT CORPORATION,gardenridgealf@yahoo.com,7/6/21,29.7123,-98.2986
The Whitestone,101251,ASSISTED LIVING,Comanche,TYPE B,148826,100 ALAMO,Comanche,TX,76442,(325) 356-9303,36,COMANCHE COUNTY ASSISTED LIVING INC,NONPROFIT ORGANIZATION,thewhitestone@comanchecmc.com,7/6/21,31.9143,-98.5888
Wesley House,110114,ASSISTED LIVING,Cooke,TYPE B,307452,3291 E BROADWAY,Gainesville,TX,76240,,60,WESLEY  HOUSE LINDALE LLC,LIMITED LIABILITY COMPANY (LLC),dperry@wesleyseniorliving.com,7/6/21,33.6255,-97.1067
Wheeler Place,997,ASSISTED LIVING,Cooke,TYPE B,147694,2310 E BROADWAY ST,Gainesville,TX,76240,(940) 668-8977,51,WHEELER AID OPCO LLC,LIMITED LIABILITY COMPANY (LLC),legalhelp@enlivant.com,7/6/21,33.6251,-97.1189
"All American Assisted Living Facility, Llc",106941,ASSISTED LIVING,Coryell,TYPE A,307140,809 RODNEY AVENUE,Copperas Cove,TX,76522,(254) 577-5547,6,"ALL AMERICAN DREAM ASSISTED LIVING FACILITY, LLC",LIMITED LIABILITY COMPANY (LLC),adesolaolatunji@yahooo.com,7/6/21,31.1172,-97.8808
Stoney Brook Of Copperas Cove,104600,ASSISTED LIVING,Coryell,TYPE B,307132,1808 MARTIN LUTHER KING JR DRIVE,Copperas Cove,TX,76522,(254) 547-1700,28,4K HOUSING  INC,NONPROFIT ORGANIZATION,stoneybrookcoveed@islllc.com,7/6/21,31.1358,-97.9192
Stoney Brook Of Copperas Cove,104601,ASSISTED LIVING,Coryell,TYPE A,148213,1808 MARTIN LUTHER KING JR DRIVE,Copperas Cove,TX,76522,(254) 547-1700,52,4K HOUSING  INC,NONPROFIT ORGANIZATION,lrodriguez@rcmseniorliving.com,7/6/21,31.1358,-97.9192
Coryell County Memorial Hospital Authority,30000,ASSISTED LIVING,Coryell,TYPE B,145845,1507 W MAIN ST,Gatesville,TX,76528,(254) 248-6293,70,CORYELL COUNTY MEMORIAL HOSPITAL AUTHORITY,HOSPITAL DISTRICT/AUTHORITY,susie.keeney@coryellhealth.org,7/6/21,31.4349,-97.7798
A Caring Home With Friends Assisted Living,105835,ASSISTED LIVING,Dallas,TYPE B,307733,1501 MCCOY PL,Carrollton,TX,75006,(817) 889-4886,6,"CEDARS VILLAGE, LLC",LIMITED LIABILITY COMPANY (LLC),info@mycedarsvillage.com,7/6/21,32.9837,-96.8975
Briarview Senior Living,106695,ASSISTED LIVING,Dallas,TYPE B,146412,2645 E TRINITY MILLS RD,Carrollton,TX,75006,(972) 418-1400,109,"TCG CARROLLTON CAMPUS, LLC",LIMITED LIABILITY COMPANY (LLC),bmccaleb@sagora.com,7/6/21,32.9877,-96.8647
Oxford Glen At Carrollton,106316,ASSISTED LIVING,Dallas,TYPE B,148886,2221 MARSH LANE,Carrollton,TX,75006,(972) 820-5975,70,OXFORD CARROLLTON MEMORY CARE LTD,LIMITED LIABILITY COMPANY (LLC),cnicolas@oxfordseniorliving.com,7/6/21,32.9711,-96.8567
Cedar Hills Senior Living,300,ASSISTED LIVING,Dallas,TYPE B,149182,602 E BELTLINE RD,Cedar Hill,TX,75104,(972) 291-5000,50,"CEDAR SENIOR LIVING, INC",FOR-PROFIT CORPORATION,pinnaclelicensing@scpinnacle.com,7/6/21,32.5892,-96.9289
Elshadai Care Home,103024,ASSISTED LIVING,Dallas,TYPE A,145870,1225 NUTTING STREET,Cedar Hill,TX,75104,(972) 291-7445,6,ELIZABETH AYORINDE,SOLE PROPRIETOR,elshadaicarehome@sbcglobal.net,7/6/21,32.565,-96.9551
Morada Cedar Hill,102594,ASSISTED LIVING,Dallas,TYPE B,308154,235 W. PLEASANT RUN RD.,Cedar Hill,TX,75104,972 2914955,85,"HP CEDAR HILL OPCO I, LLC",LIMITED LIABILITY COMPANY (LLC),twilliams@capitalseniorliving.net,7/6/21,32.6052,-96.9484
Passionate Living Inc,104206,ASSISTED LIVING,Dallas,TYPE A,150286,489 KENYA ST,Cedar Hill,TX,75104,(214) 886-0094,10,PASSIONATE LIVING INC,FOR-PROFIT CORPORATION,stellaomen@sbcglobal.net,7/6/21,32.5844,-96.9344
"Shiny Days Health Care ,Llc",110396,ASSISTED LIVING,Dallas,TYPE A,307991,1033 SUFFOLK LN.,Cedar Hill,TX,75104,(214) 493-0951,6,"SHINY DAYS HEALTH CARE, LLC",LIMITED LIABILITY COMPANY (LLC),info@shinydayshc.com,7/6/21,32.6066,-96.9093
Christus St Joseph Village,101774,ASSISTED LIVING,Dallas,TYPE B,147906,1201 E SANDY LAKE RD,Coppell,TX,75019,(972) 304-0300,54,CHRISTUS HEALTH,NONPROFIT ORGANIZATION,mitchell.george@christushealth.org,7/6/21,32.9665,-96.9549
Four Seasons Senior Living V Llc,105609,ASSISTED LIVING,Dallas,TYPE B,149658,205 PLANTATION DR,Coppell,TX,75019,(972) 584-9880,6,"4SSL HOLDINGS, LLC",LIMITED LIABILITY COMPANY (LLC),admin@fourseasonsseniorliving.com,7/6/21,32.9628,-96.9975
River Oaks Assisted Living And Memory Care,105575,ASSISTED LIVING,Dallas,TYPE B,147411,1530 E. SANDY LAKE RD,Coppell,TX,75019,(214) 390-2450,86,COPPELL ALF LLC,LIMITED LIABILITY COMPANY,tdads@legendseniorliving.com,7/6/21,32.9672,-96.9474
3 Angels Caregivers,102051,ASSISTED LIVING,Dallas,TYPE B,148407,9754 AMBERLEY DR,Dallas,TX,75243,(214) 575-3585,8,NATIVIDAD CHIPANA,SOLE PROPRIETOR,threeangelcaregiver@yahoo.com,7/6/21,32.9179,-96.7186
Ada M King Adult Foster Home,1275,ASSISTED LIVING,Dallas,TYPE C,150041,1320 BAR HARBOR DR,Dallas,TX,75232,(214) 375-5254,4,ADA M KING,OTHER,adaking111@yahoo.com,7/6/21,32.67,-96.8408
Adora Midtown Park,107016,ASSISTED LIVING,Dallas,TYPE B,148805,8130 MEADOW DRIVE,Dallas,TX,75231,(214) 765-3300,29,"ADORA 9 OPERATIONS, LLC",LIMITED LIABILITY COMPANY (LLC),administrator@adoramidtown.com,7/6/21,32.8871,-96.7662
Agape Place I I,50024,ASSISTED LIVING,Dallas,TYPE A,148449,631 W 10TH ST,Dallas,TX,75208,(214) 941-9925,24,AGAPE PLACE PERSONAL CARE HOMES INC,FOR-PROFIT CORPORATION,wagapeinc@sbcglobal.net,7/6/21,32.7454,-96.8338
Agape Place Personal Care Home,871,ASSISTED LIVING,Dallas,TYPE A,146295,801 W 10TH ST,Dallas,TX,75208,(214) 941-9925,28,AGAPE PLACE PERSONAL CARE HOMES INC,FOR-PROFIT CORPORATION,wagapeinc@sbcglobal.net,7/6/21,32.7455,-96.836
Albert Assisted Living Facility,105680,ASSISTED LIVING,Dallas,TYPE A,146754,4666 LA RUE ST,Dallas,TX,75211,(214) 566-7094,8,IMAOBONG UDOH AND AUGUSTINE UDOH,GENERAL PARTNERSHIP,alberthomehealth@yahoo.com,7/6/21,32.7136,-96.8988
Angel Hands,103315,ASSISTED LIVING,Dallas,TYPE A,148322,3337 GLADIOLUS LN,Dallas,TX,75233,(214) 337-9409,6,JANICE L AUSTINDOUGLAS,SOLE PROPRIETOR,harold-douglas@sbcglobal.net,7/6/21,32.6945,-96.8758
Assisted Living & Memory Care At Royal Gardens,106500,ASSISTED LIVING,Dallas,TYPE B,307589,3808 ROYAL LANE,Dallas,TX,75229,(469) 779-7778,8,JTL HEALTHCARE LLC,LIMITED LIABILITY COMPANY (LLC),jennyntl@gmail.com,7/6/21,32.8947,-96.8498
"At Home Elderly Living, Llc",104329,ASSISTED LIVING,Dallas,TYPE B,144810,7541 ROYAL PLACE,Dallas,TX,75230,(214) 403-0445,8,"AT HOME ELDERLY LIVING, LLC",SOLE PROPRIETOR,ann@athomeelderlyliving.com,7/6/21,32.8971,-96.7754
At Home Luxury Assisted Living Ii Llc,101109,ASSISTED LIVING,Dallas,TYPE B,146685,7038 LATTIMORE DRIVE,Dallas,TX,75252,(214) 403-0445,8,AT HOME LUXURY ASSISTED LIVING II LLC,SOLE PROPRIETOR,noelldesruisseaux@yahoo.com,7/6/21,32.9924,-96.7811
"At Home Luxury Assisted Living Ii, Llc",105690,ASSISTED LIVING,Dallas,TYPE B,145341,6946 FOREST LANE,Dallas,TX,75230,(214) 361-8791,8,AT HOME LUXURY ASSISTED LIVING II LLC,SOLE PROPRIETOR,contact@athomeluxuryliving.com,7/6/21,32.9093,-96.7849
Autumn Leaves Personal Care Unit,651,ASSISTED LIVING,Dallas,TYPE B,144993,1010 EMERALD ISLE DR,Dallas,TX,75218,(214) 328-4161,58,LCSAL LLC,LIMITED LIABILITY COMPANY (LLC),carcanolinda@lcsnet.com,7/6/21,32.8279,-96.71
Avalon Memory Care,10380,ASSISTED LIVING,Dallas,TYPE B,149495,4330 ALLENCREST,Dallas,TX,75244,(214) 752-7050,16,AVALON DEMENTIA CARE MANAGEMENT  LLC,LIMITED LIABILITY COMPANY (LLC),licensure@avalonemorycare.com,7/6/21,32.9107,-96.8348
Avalon Memory Care  Canongate,30116,ASSISTED LIVING,Dallas,TYPE B,149271,7212 CANONGATE DR,Dallas,TX,75248,(214) 752-7050,8,AVALON DEMENTIA CARE MANAGEMENT  LLC,LIMITED LIABILITY COMPANY (LLC),licensure@avalonmemorycare.com,7/6/21,32.9789,-96.7808
